fas_id,name,address,postcode,easting,northing,latitude,longitude,local_authority
84373,Ace Of Club's,"Wingate And Finchley Football Club,  Summers Lane, London",N12 0PD,526634,191269,51.606027,-0.172783,Barnet
84388,Age Concern Barnet,"Meritage Club,  Church End, London",NW4 4JT,522912,189526,51.591187,-0.227097,Barnet
84390,Ahir Lorenzo's Bar Restaurant,"298 Nether Street, London",N3 1RJ,525064,190865,51.602747,-0.195571,Barnet
84398,Albanian Association,"Albanian Association,  Summers Lane, London",N12 0PD,526634,191269,51.606027,-0.172783,Barnet
84481,Bald Faced Stag,"Bald Faced Stag, 69 High Road, London",N2 8AB,527237,189406,51.589149,-0.164741,Barnet
84493,Barnet Copthall Leisure Centre,"Barnet Copthall Leisure Centre,  Champions Way, London",NW4 1PX,522894,191081,51.605174,-0.226812,Barnet
84595,Brondesbury Cricket Tennis Bowls & Squash Club,"Brondesbury Cricket Tennis And Squash Club, 5 Harman Drive, London",NW2 2EB,524400,185936,51.558588,-0.206898,Barnet
84666,Camden Playing Fields Sports And Social Club,"Old Camdenians Football Club,  Burtonhole Lane, London",NW7 1AS,523547,192816,51.620624,-0.216777,Barnet
84684,Catcher In The Rye,"315 Regents Park Road, London",N3 1DP,525040,190525,51.599697,-0.196039,Barnet
84687,Cavalier Public House,"67 Russell Lane, London",N20 0BB,527593,193929,51.629715,-0.15796,Barnet
84814,Cricklewood Trades Hall Club And Institute,"134 Cricklewood Lane, London",NW2 2DP,524240,186075,51.559882,-0.209156,Barnet
84839,Darren O'Brien,"243 Golders Green Road, London",NW11 9PN,524263,188131,51.578345,-0.208098,Barnet
84840,David Lloyd Club,"David Lloyd Leisure Centre,  Leisure Way, London",N12 0QZ,526518,191247,51.605864,-0.17445,Barnet
84906,East Finchley Constitutional Club,"East Finchley Constitutional Club,  The Walks, London",N2 8DE,526933,189788,51.592651,-0.168988,Barnet
84934,Elephant Inn,"Elephant Inn, 283 Ballards Lane, London",N12 8NR,526128,191854,51.611398,-0.179861,Barnet
84986,Finchley Bowling Club,"Finchley Bowling Club,  Etchingham Park Road, London",N3 2DT,525935,191281,51.606292,-0.182852,Barnet
84991,Finchley Golf Club,"Nether Court,  Frith Lane, London",NW7 1PU,524591,191645,51.609861,-0.20212,Barnet
84995,Finchley Lawn Tennis Club,"Finchley Lawn Tennis Club,  Brent Way, London",N3 1AJ,525024,191567,51.609074,-0.195898,Barnet
84996,Finchley Lido,"Great North Leisure Park,  Chaplin Square, London",N12 0GL,526582,191132,51.604808,-0.173568,Barnet
84997,"Finchley Manor Lawn Tennis, Squash And Health Club","Finchley Manor Lawn Tennis And Squash Rackets Club,  Lyndhurst Gardens, London",N3 1TD,524474,190734,51.6017,-0.204132,Barnet
85003,Finchley United Services Club,"307 Ballards Lane, London",N12 8LY,526259,192023,51.612887,-0.177923,Barnet
85044,Friary Park Bowling Club,"Friary Park,  Friary Road, London",N20 0NR,527353,192773,51.619381,-0.161845,Barnet
85061,Funky Brownz,"63 The Hyde, London",NW9 6LE,521473,188686,51.583949,-0.248149,Barnet
85067,Gallery,"407 Hendon Way, London",NW4 3LH,522919,188511,51.582063,-0.227351,Barnet
85073,Gate Lodge,"622 Finchley Road, London",NW11 7RR,525184,187350,51.571131,-0.195092,Barnet
85078,Gertie Brownes,"95 High Road, London",N2 8AG,527219,189583,51.590744,-0.164936,Barnet
85111,Grahame Park Youth Centre,"Grahame Park Young Peoples Activity Centre,  Corner Mead, London",NW9 5RA,521915,190837,51.603194,-0.241026,Barnet
85146,Hampstead Golf Club,"82 Winnington Road, London",N2 0TU,526626,187491,51.572068,-0.174246,Barnet
85165,Hendon Golf Club,"Hendon Golf Club,  Ashley Walk, London",NW7 1DG,523348,191298,51.607016,-0.220184,Barnet
85174,Hendon Rugby Football Club,"Hendon Rugby Football Club,  Greenlands Lane, London",NW4 1RL,522925,190937,51.603873,-0.226415,Barnet
85176,Hendon Sea Training Corps,"Hendon Sea Cadet Hall,  Cool Oak Lane, London",NW9 7ND,521646,187598,51.574134,-0.24603,Barnet
85185,Hind & Hart,"Hind And Hart,  The Concourse, London",NW9 5XA,521641,190756,51.602516,-0.245009,Barnet
85206,Hoop Lane Montessori School,"31 Hoop Lane, London",NW11 8BS,524979,187817,51.575365,-0.197882,Barnet
85278,Joiners Arms,"Joiners Arms, 51 Ballards Lane, London",N3 1XP,525356,190939,51.603347,-0.191331,Barnet
85304,Keenans,"Keenans, 87 Colney Hatch Lane, London",N10 1LR,528395,190587,51.5995,-0.147603,Barnet
85370,Laboratory Spa & Health Club,"1 Hall Lane, London",NW4 4TJ,522289,190488,51.599968,-0.23575,Barnet
85376,Lambo Bar,"The Tavern, 75 Cricklewood Lane, London",NW2 1HR,524334,186170,51.560706,-0.207767,Barnet
85439,Lucky 7 - Wine Bar,"7 Cricklewood Lane, London",NW2 1ET,523843,185784,51.557345,-0.214982,Barnet
85537,Mill Hill Golf Club,"Mill Hill Golf Club, 100 Barnet Way, London",NW7 3AL,521007,193656,51.628706,-0.253159,Barnet
85541,Mill Hill Rugby Club,"Mill Hill Rugby Football Club,  Champions Way, London",NW7 2EQ,522526,191036,51.604841,-0.232139,Barnet
85543,Mill Hill Services Club,"Mill Hill Services Club Ltd, 11 Hartley Avenue, London",NW7 2HX,521714,192158,51.615101,-0.243484,Barnet
85544,Mill Hill Sports Club,"The Orion Primary School,  Grahame Park Way, London",NW7 2AL,521453,191339,51.607796,-0.24752,Barnet
85546,Mill Hill Village Sports Club,"The Mill Hill Cricket Club,  Burtonhole Lane, London",NW7 1AS,523547,192816,51.620624,-0.216777,Barnet
85630,North Middlesex Golf Club,"North Middlesex Golf Club,  Friern Barnet Lane, London",N20 0NL,527072,193053,51.621961,-0.165801,Barnet
85659,O'Hanlons PH,"O'Hanlons, 210 West Hendon Broadway, London",NW9 7EE,522128,187945,51.577149,-0.238972,Barnet
85676,Orange Tree Public House,"Orange Tree, 7 Totteridge Village, London",N20 8NX,524930,193895,51.630007,-0.196426,Barnet
85684,Osidge Arms,"Osidge Arms,  Hampden Square, London",N14 5JP,528662,194228,51.632159,-0.142414,Barnet
85688,Oxi Football Club,"232 Woodhouse Road, London",N12 0RS,527308,191891,51.611474,-0.162815,Barnet
85702,Papillion Lounge Bar,"The Market Place,  Falloden Way, London",NW11 6JJ,526002,188985,51.585643,-0.182709,Barnet
85786,Powerleague Fives Limited,"Powerleague Soccer Centre, 31 Pursley Road, London",NW7 2BB,522890,191345,51.607539,-0.226777,Barnet
85820,Railway Tavern,"Railway Tavern, 129 Hale Lane, London",NW7 3SB,520641,192276,51.616401,-0.258918,Barnet
85879,Safari Club,"Highwood Court, 975 High Road, London",N12 8QR,526302,193031,51.621936,-0.176925,Barnet
85970,South Herts Golf Club,"South Herts Golf Club,  Links Drive, London",N20 8QU,525512,194174,51.632376,-0.187922,Barnet
85972,Southover Pre School,"Old Finchleians Club, 12 Southover, London",N12 7JE,525371,192704,51.619205,-0.190484,Barnet
85994,St Barnabas,"St Barnabas Church,  Holden Road, London",N12 7DN,525618,192492,51.617254,-0.186993,Barnet
85996,St Edwards Church Social Club,"St Edward The Confessor Roman Catholic Church, 700 Finchley Road, London",NW11 7NE,525072,187928,51.576351,-0.196501,Barnet
86084,Tally Ho Public House,"749 High Road, London",N12 0BP,526359,192121,51.613746,-0.17643,Barnet
86106,Templars Lawn Tennis Club,"Templars Lawn Tennis Club,  St Andrews Road, London",NW11 0PJ,524783,188117,51.578113,-0.200602,Barnet
86134,The Adam & Eve,"Adam And Eve,  The Ridgeway, London",NW7 1RL,523455,192329,51.616258,-0.218277,Barnet
86135,The Alexandra,"The Alexandra, 1 Church Lane, London",N2 8DX,526860,189965,51.594258,-0.169978,Barnet
86138,The Arena Club,"17 Central Circus, London",NW4 3AS,522958,188632,51.583142,-0.226746,Barnet
86144,The Beaufort,"2 Heritage Avenue, London",NW9 5AA,521806,190094,51.596531,-0.242857,Barnet
86148,The Bodhran PH,"3 Vivian Avenue, London",NW4 3UT,522857,188556,51.582481,-0.228229,Barnet
86149,The Bohemia,"762 High Road, London",N12 9QH,526360,192309,51.615435,-0.176348,Barnet
86152,The Bridge Tavern,"9 The Broadway, London",NW7 3LN,521337,192053,51.614238,-0.248948,Barnet
86158,The Chandos Arms,"The New Chandos, 31 Colindale Avenue, London",NW9 5DS,520914,189693,51.59312,-0.255881,Barnet
86159,The Chequers PH,"The Chequers, 20 Church End, London",NW4 4JT,522912,189526,51.591187,-0.227097,Barnet
86162,The Claddagh Ring,"The Claddagh Ring, 10 Church Road, London",NW4 4EA,522982,189415,51.590174,-0.226126,Barnet
86174,The Dick Turpin,"Tavern Lodge, 383 Long Lane, London",N2 8JW,526393,190058,51.595198,-0.176682,Barnet
86175,The Dignity,"363 Regents Park Road, London",N3 1DH,525126,190659,51.600882,-0.19475,Barnet
86181,The Five Bells,"Five Bells, 165 East End Road, London",N2 0LZ,526738,189520,51.590286,-0.171898,Barnet
86188,The Gower Club,"University College School Sports Ground,  Ranulf Road, London",NW2 2BS,524812,185915,51.558309,-0.200966,Barnet
86190,The Greek Chef,"Glebelands Indoor Bowls Club,  Summers Lane, London",N12 0PD,526634,191269,51.606027,-0.172783,Barnet
86193,The Griffin,"The Griffin, 1262 High Road, London",N20 9HH,526436,193980,51.630444,-0.174648,Barnet
86197,The Hendon,"The Hendon, 377 Hendon Way, London",NW4 3LP,522940,188442,51.581439,-0.227072,Barnet
86223,The Midland Hotel,"The Midland Hotel Public House, 29 Station Road, London",NW4 4PN,522225,188344,51.580713,-0.23742,Barnet
86224,The Minstrel Boy,"The Minstrel Boy, 156 Colney Hatch Lane, London",N10 1ER,528462,190549,51.599143,-0.14665,Haringey
86225,The Moon Under  Water,"Varley Parade,  The Hyde, London",NW9 6RR,521273,189061,51.587362,-0.250905,Barnet
86232,The Old White Lion,"Old White Lion, 121 Great North Road, London",N2 0NW,527241,189205,51.587342,-0.164756,Barnet
86234,The Original Brewing Co,"Great North Leisure Park,  Chaplin Square, London",N12 0GL,526582,191132,51.604808,-0.173568,Barnet
86241,The Red Filly,"Thornfield Parade,  Holders Hill Road, London",NW7 1LN,524243,191037,51.604483,-0.207358,Barnet
86242,The Refectory,"The Refectory, 911 Finchley Road, London",NW11 7PE,525090,187658,51.57392,-0.196338,Barnet
86246,The Rising Sun,"137 Marsh Lane, London",NW7 3EY,520725,193061,51.62342,-0.257436,Barnet
86256,The Spaniards Inn,"The Spaniards Inn,  Spaniards Road, London",NW3 7JJ,526638,187232,51.569738,-0.174166,Barnet
86271,The Village Royal British Legion,"St Johns Buildings,  Friern Barnet Road, London",N11 3DP,527866,192127,51.613459,-0.154675,Barnet
86277,The Windsor Castle,"Windsor Castle,  The Walks, London",N2 8DL,526778,189888,51.593584,-0.171189,Barnet
86278,The Woodhouse,"230 Woodhouse Road, London",N12 0RS,527308,191891,51.611474,-0.162815,Barnet
86280,The York Arms,"York Arms, 310 Oakleigh Road North, London",N20 0DH,527538,193417,51.625127,-0.15894,Barnet
86282,Three Hammers Public House,"Three Hammers,  Hammers Lane, London",NW7 4EA,522336,192822,51.620942,-0.234258,Barnet
86283,Three Horseshoes Public House,"Three Horseshoes, 1166 High Road, London",N20 0RA,526426,193606,51.627076,-0.174928,Barnet
86293,Tommy Flynn's,"Finchley Tavern, 686 High Road, London",N12 9PT,526424,192019,51.612815,-0.175543,Barnet
86294,Toolans,"866 High Road, London",N12 9RH,526346,192679,51.618772,-0.176431,Barnet
86301,Totteridge Cricket Club,"Totteridge Cricket Club,  Totteridge Green, London",N20 8PB,525092,193664,51.627895,-0.194169,Barnet
86303,Totteridge Tennis Club,"Totteridge Tennis Club,  Great Bushey Drive, London",N20 8QL,525943,194228,51.632783,-0.181678,Barnet
86343,Virgin Active,"34 Langstone Way, London",NW7 1GU,524018,191390,51.607696,-0.210481,Barnet
86344,Virgin Active - Friern Barnet,"Princess Park Manor,  Royal Drive, London",N11 3BG,528339,192064,51.612786,-0.147871,Barnet
86345,Virgin Active Cricklewood,"108 Cricklewood Lane, London",NW2 2DS,524202,186012,51.559324,-0.209726,Barnet
86363,Wallace Bar,"1023 Finchley Road, London",NW11 7ES,524928,188282,51.579555,-0.198453,Barnet
86368,Waterfall Tennis Club,"The Pavilion,  Pymmes Green Road, London",N11 1DD,528995,193231,51.623132,-0.137972,Barnet
86377,West Finchley Bowling Club,"6 Dudley Road, London",N3 2QR,525772,190224,51.596829,-0.185583,Barnet
86389,Wilf Slack Sports Club,"19 East End Road, London",N3 2SU,525359,190184,51.596561,-0.191557,Barnet
86392,Wingate & Finchley FC,"Wingate And Finchley Football Club,  Summers Lane, London",N12 0PD,526634,191269,51.606027,-0.172783,Barnet
86408,Woodside Park Club,"Woodside Park Club,  Southover, London",N12 7JG,525330,192778,51.61988,-0.191049,Barnet
86512,Barge Pole Public House,"32 Coralline Walk, Abbey Wood, London",SE2 9SU,547383,179487,51.495121,0.121714,Bexley
86539,Belvedere Sports & Social Club,"Belvedere Sports Club, 101A Woolwich Road, Abbey Wood, London",SE2 0DY,548451,178167,51.482981,0.136519,Bexley
87513,Sporting Club Thamesmead,"30 Bayliss Avenue, Thamesmead, London",SE28 8NJ,547785,180821,51.507002,0.128059,Bexley
87815,A Pousada,"A Pousada, 109 High Street, London",NW10 4TS,521848,183367,51.536066,-0.244582,Brent
87884,Angies,"11A-13A Walm Lane, London",NW2 5SJ,523251,184728,51.547993,-0.223887,Brent
87885,Angie's,"127 High Street, London",NW10 4TR,521920,183299,51.53544,-0.243568,Brent
87901,Arista Bar,"232 Church Lane, London",NW9 8SN,520549,187451,51.573049,-0.261903,Brent
87951,Bar Lula's,"50 High Road, London",NW10 2QA,522980,184667,51.547495,-0.227815,Brent
87955,Barretts,"239 Cricklewood Broadway, London",NW2 3HP,523682,185852,51.558001,-0.21728,Brent
87991,Black Leaf,"163 Edgware Road, Kingsbury, London",NW9 6LL,521322,188893,51.585843,-0.250271,Brent
88026,Brent Tavern,"4 Gladstone Parade, Edgware Road, Cricklewood, London",NW2 6JS,523233,186492,51.563851,-0.223544,Brent
88101,Carlton Lounge,"232-234 Kingsbury Road, London",NW9 0BH,520442,188606,51.583452,-0.26305,Brent
88167,Club Marina,"244-246 Kingsbury Road, London",NW9 0BG,520374,188641,51.583781,-0.264005,Brent
88237,Crystals Bar & Restaurant,"Community Centre, Crystal House, 2 Agate Close, London",NW10 7FJ,519026,182927,51.532713,-0.285398,Brent
88290,Earl Derby,"155 Kilburn High Road, London",NW6 7HU,525150,183962,51.540701,-0.196787,Brent
88309,Erin's Hope,"189 Edgware Road, Kingsbury, London",NW9 6LP,521227,189036,51.587148,-0.251592,Brent
88335,Falcon Public House,"341 Kilburn Lane, Maida Hill, London",W9 3EG,524549,183103,51.533105,-0.205752,Brent
88360,Flyer's Last Stand,"45 Blackbird Hill, London",NW9 8RS,520524,186519,51.564678,-0.262583,Brent
88361,Flynns,"117 High Road, London",NW10 2SL,522822,184599,51.546919,-0.230116,Brent
88413,George Public House,"George, Church Lane, London",NW9 8SN,520549,187451,51.573049,-0.261903,Brent
88435,Grand Junction Arms Public House,"Grand Junction Arms, Acton Lane, London",NW10 7AD,520741,183161,51.534461,-0.260605,Brent
88441,Greenes,"362-364 Neasden Lane North, London",NW10 0BT,521083,186165,51.561368,-0.254644,Brent
88491,Harlesden Picture Palace,"26 Manor Park Road, London",NW10 4JJ,521748,183464,51.53696,-0.245989,Brent
88507,Heritage Inn,"301 Cricklewood Broadway, London",NW2 6PG,523516,186072,51.560005,-0.219596,Brent
88577,J J Moons,"553 Kingsbury Road, London",NW9 9EL,519236,188705,51.584598,-0.280415,Brent
88603,Jet Set,"252 High Street, London",NW10 4TD,522110,183051,51.53317,-0.240915,Brent
88613,JJ's Wine Bar,"1 Craven Park Road, London",NW10 8SE,521467,183591,51.538161,-0.249995,Brent
88617,JoNo's,"458 Church Lane, London",NW9 8UA,520497,188356,51.581193,-0.262343,Brent
88644,Katie's,"350 Neasden Lane, London",NW10 0AD,521329,186036,51.560156,-0.251142,Brent
88779,Lost Rivers Taprooms,"67B London Designer Outlet, Wembley Park Boulevard, Wembley",HA9 0FD,519048,185606,51.556776,-0.284175,Brent
88790,Maggies Bar,"102 Chamberlayne Road, London",NW10 3JN,523557,183277,51.534886,-0.219985,Brent
88795,Maloney's,"429 High Road, London",NW10 2JN,521974,184804,51.548954,-0.242268,Brent
88820,Masons Arms,"665 Harrow Road, London",NW10 5NU,523062,182725,51.530042,-0.227311,Brent
88830,McDonaghs Bar,"2-4 Slough Lane, London",NW9 8QL,520426,188085,51.578773,-0.26346,Brent
88836,McGlynn's Bar,"70 Willesden Lane, Kilburn, London",NW6 7SX,524870,184010,51.541185,-0.200805,Brent
88837,McGoverns,"147 Cricklewood Broadway, London",NW2 3HY,523857,185634,51.556003,-0.214834,Brent
88838,McGoverns,"60 High Road, London",NW10 2PU,522919,184651,51.547374,-0.2287,Brent
88839,McGowans,"225-227 Edgware Road, Kingsbury, London",NW9 6LU,521135,189173,51.588399,-0.252858,Brent
88840,McGowan's,"88 Walm Lane, London",NW2 4QY,523430,184812,51.5487,-0.221278,Brent
88856,Metro Bar,"238-240 Neasden Lane, London",NW10 0AA,521458,185923,51.559121,-0.24932,Brent
88987,No 8,"305 High Road, London",NW10 2JT,522202,184782,51.548698,-0.239004,Brent
88993,North London Tavern,"375 Kilburn High Road, London",NW6 7QB,524767,184448,51.545135,-0.202135,Brent
89052,Parlour,"5 Regent Street, London",NW10 5LG,523806,182593,51.528685,-0.216638,Brent
89112,Power's Bar,"23 Hay Lane, London",NW9 0NH,520407,189143,51.588294,-0.263371,Brent
89134,Prince Of Wales,"97-101 Willesden Lane, Kilburn, London",NW6 7SD,524671,183940,51.5406,-0.203698,Brent
89135,Prince of Wales Public House,"11 Cambridge Gardens, London",NW6 5AE,525347,183232,51.534088,-0.194207,Brent
89188,Rising Sun,"25 Harlesden Road, London",NW10 2BY,522822,184427,51.545382,-0.230176,Brent
89206,Royal British Legion (West Kilburn) Ltd,"15 Peel Precinct, London",NW6 5RE,525002,183093,51.532924,-0.199228,Brent
89215,Royal Oak,"95 High Street, London",NW10 4TS,521848,183367,51.536066,-0.244582,Brent
89251,Sals Bar,"249 Neasden Lane, London",NW10 1QG,521391,185961,51.559468,-0.250274,Brent
89373,Sportsman's,"58 Station Road, London",NW10 4UA,521632,183110,51.533812,-0.247783,Brent
89529,The Betsy Smith,"77 Kilburn High Road, London",NW6 6HY,525402,183605,51.537428,-0.193282,Brent
89533,The Burren,"174 Church Road, London",NW10 9NH,521431,184589,51.547129,-0.25017,Brent
89535,The Chamberlayne,"83 Chamberlayne Road, London",NW10 3ND,523660,183167,51.533875,-0.21854,Brent
89537,The Cock Tavern,"125 Kilburn High Road, London",NW6 6JH,525289,183756,51.53881,-0.194857,Brent
89543,The Cricklewood Club,"327 Edgware Road, Cricklewood, London",NW2 6JP,523342,186324,51.562308,-0.222017,Brent
89554,The Good Ship,"289 Kilburn High Road, London",NW6 7JR,524880,184287,51.543681,-0.200563,Brent
89559,The Green Man,"The Green Man, Slough Lane, London",NW9 8YG,520138,188601,51.583472,-0.267438,Brent
89562,The Island Bar & Dining,"123 College Road, London",NW10 5HA,523096,183311,51.535301,-0.226616,Brent
89565,The Kingdom,"229 Kilburn High Road, London",NW6 7JG,525022,184116,51.542113,-0.198577,Brent
89581,The Paradise,"19 Kilburn Lane, North Kensington, London",W10 4AE,523830,182636,51.529066,-0.216277,Brent
89587,The Queensbury,"110A Walm Lane, London",NW2 4RS,523489,184886,51.549361,-0.220401,Brent
89590,The Roisin,"1 Fryent Way, London",NW9 9ER,519206,188688,51.584451,-0.280853,Brent
89593,The Salusbury,"50-52 Salusbury Road, London",NW6 6NN,524560,183376,51.535556,-0.205497,Brent
89598,The Shanakee,"253 Edgware Road, Kingsbury, London",NW9 6LU,521135,189173,51.588399,-0.252858,Brent
89599,The Shawl,"25 High Street, London",NW10 4NE,521641,183409,51.536488,-0.24755,Brent
89617,The Whippet Inn,"64-66 Chamberlayne Road, London",NW10 3JJ,523694,182998,51.532349,-0.218124,Brent
89620,The Windmill,"57 Cricklewood Broadway, London",NW2 3JX,524093,185321,51.553129,-0.211542,Brent
89630,Tonys Freehouse,"356-360 High Road, London",NW10 2EG,522037,184803,51.548931,-0.241361,Brent
89673,Villa Country Club,"75 Park Parade, London",NW10 4HT,521847,183404,51.536399,-0.244583,Brent
89729,William IV,"786 Harrow Road, London",NW10 5JX,523646,182624,51.528998,-0.218932,Brent
89741,Wishing Well,"Wishing Well, Church Lane, London",NW9 8JS,520503,187520,51.573679,-0.262543,Brent
89822,Anerley Arms,"2 Ridsdale Road, Penge, London",SE20 8AB,534577,170036,51.413381,-0.066235,Bromley
89863,Bannatyne's Health Club,"Bannatynes Health Club, 35 Marvels Lane, Grove Park, London",SE12 9PN,540887,172684,51.435644,0.025492,Bromley
89973,Bridge House Tavern,"2 High Street, Penge, London",SE20 8RZ,534951,170568,51.418073,-0.060658,Bromley
90067,Centymca Sports Ground,"London Marathon Sports Ground, Grove Park Road, Mottingham, London",SE9 4QE,541866,172620,51.434816,0.039541,Bromley
90145,Conservative Club,"55 Croydon Road, Penge, London",SE20 7TG,535387,169830,51.411328,-0.054673,Bromley
90200,Crooked Billet,"99 High Street, Penge, London",SE20 7DT,535489,170323,51.415743,-0.053019,Bromley
90215,Crystal Palace Indoor Bowling,"183A Anerley Road, Penge, London",SE20 8EF,534686,169746,51.410749,-0.064778,Bromley
90387,Goldsmiths Arms,"3 Croydon Road, Penge, London",SE20 7TJ,535524,170012,51.41294,-0.052635,Bromley
90393,Grape & Grain,"Grape And Grain, 2 Anerley Hill, Anerley, London",SE19 2AA,533797,170696,51.419488,-0.077195,Bromley
90469,Hollywood East,"1 Station Road, Penge, London",SE20 7BE,535274,170738,51.419524,-0.055951,Bromley
90556,Kent House Tavern,"Thesiger Road, Penge, London",SE20 7NQ,535975,170398,51.416301,-0.046006,Bromley
90672,Maple Tree,"52 - 54 Maple Road, Penge, London",SE20 8HE,535113,169842,51.41151,-0.058606,Bromley
90734,Moon And Stars,"164 - 166 High Street, Penge, London",SE20 7QS,535670,169956,51.412402,-0.050558,Bromley
90743,Mottingham Sports Ground,"London Marathon Sports Ground, Grove Park Road, Mottingham, London",SE9 4QE,541866,172620,51.434816,0.039541,Bromley
90885,Pawleyne Arms,"156 High Street, Penge, London",SE20 7EU,535553,170146,51.414128,-0.052167,Bromley
90894,Penge And District Trade Union And Social Club,"85 Royston Road, Penge, London",SE20 7QW,535736,169711,51.410184,-0.049703,Bromley
90968,Prince Of Wales,"154 Mottingham Road, Mottingham, London",SE9 4SP,542436,172499,51.433586,0.047687,Bromley
91130,South East London Masonic Club,"3 Avenue Road, London",SE20 7RT,535498,169728,51.410394,-0.053117,Bromley
91238,Sydenham Lawn Tennis And Croquet Club,"Sydenham Lawn Tennis Club, Lawrie Park Road, Sydenham, London",SE26 6ET,535029,170968,51.421649,-0.059384,Bromley
91283,The Alma,"95 Church Road, Anerley, London",SE19 2TA,533572,170479,51.417599,-0.080511,Bromley
91347,The Mitre,"164 Croydon Road, Penge, London",SE20 7YZ,534878,169419,51.407756,-0.062144,Bromley
91373,Thicket Tavern,"75 Anerley Road, Penge, London",SE20 8DQ,534241,170235,51.415249,-0.070988,Bromley
91522,12 Bar Club,"26      Denmark Street, London",WC2H 8NN,529908,181282,51.515534,-0.129205,Camden
91544,Acol Bridge Club,"86      West End Lane, London",NW6 2LX,525518,184486,51.545319,-0.191297,Camden
91577,Alexander the Great,"8      Plender Street, London",NW1 0JT,529165,183565,51.536221,-0.13907,Camden
91579,Alice House,"283-285      West End Lane, London, Greater London",NW6 1RD,525436,185157,51.551359,-0.19224,Camden
91582,All Bar One,"58      Kingsway, London",WC2B 6DX,530595,181399,51.516427,-0.119267,Camden
91583,All Bar One,"108      New Oxford Street, London",WC1A 1HB,529991,181445,51.516979,-0.127949,Camden
91608,Apartment 58,"101      New Oxford Street, London",WC1A 1DD,529885,181367,51.516303,-0.129505,Camden
91673,Bap and Pickle Smugglers Tavern,"28 Warren Street, London",W1T 5LU,529135,182192,51.523889,-0.140006,Camden
91679,Barfly,"49      Chalk Farm Road, London",NW1 8AN,528385,184338,51.543345,-0.150029,Camden
91716,Belushi's,"48-50      Camden High Street, London",NW1 0LT,529077,183620,51.536744,-0.140332,Camden
91753,Black Heart,"2-3      Greenland Place, London, Greater London",NW1 0AP,528966,183844,51.538782,-0.141835,Camden
91769,Bloomsbury Tavern,"236      Shaftesbury Avenue, London",WC2H 8EG,530135,181428,51.516785,-0.125882,Camden
91770,Bloomsbury Theatre,"15      Gordon Street, London",WC1H 0AH,529617,182365,51.525333,-0.133013,Camden
91805,Bourne & Hollingsworth,"28      Rathbone Place, London, Greater London",W1T 1JF,529549,181541,51.517935,-0.134281,Camden
91823,Bricklayers Arms,"31      Gresse Street, London",W1T 1QS,529608,181523,51.517768,-0.133437,Camden
91832,Brookes Brother Wine Bar,"33      Brooke Street, London",EC1N 7RS,531179,181666,51.518691,-0.110756,Camden
91841,Bucks Head,"202      Camden High Street, London",NW1 8QR,528829,184032,51.540503,-0.143741,Camden
91846,Bull & Bush,"Bull And Bush, North End Way, London",NW3 7HE,526008,187032,51.568091,-0.183323,Camden
91847,Bull & Last,"The Bull And Last Ph, 168      Highgate Road, London",NW5 1QS,528434,186076,51.558953,-0.148688,Camden
91947,Calthorpe Arms,"252      Gray's Inn Road, London",WC1X 8JR,530794,182326,51.524711,-0.116056,Camden
91965,Camden People's Theatre,"58-60      Hampstead Road, London",NW1 2PY,529240,182474,51.526399,-0.138404,Camden
92000,Cavali,"78      Albany Street, London",NW1 4EE,528867,182487,51.526601,-0.143773,Camden
92004,Cella Karaoke Lounge,"84-86      Chancery Lane, London",WC2A 1DL,531083,181339,51.515766,-0.11226,Camden
92070,Circus,"27      Endell Street, London, Greater London",WC2H 9BA,530209,181177,51.514521,-0.124923,Camden
92074,City of York,"22      High Holborn, London",WC1V 6BS,531050,181643,51.518505,-0.112623,Camden
92079,Clerkenwell house,"23-27      Hatton Wall, London",EC1N 8JJ,531254,181959,51.521307,-0.109566,Camden
92122,Coopers Arms,"164      Kilburn High Road, London",NW6 4JD,525186,183977,51.540819,-0.196263,Camden
92172,County Hotel Ground Floor Bar,"County Hotel, Upper Woburn Place, London",WC1H 0JW,529858,182493,51.526428,-0.129479,Camden
92177,Craft Beer Company,"82      Leather Lane, London, Greater London",EC1N 7TR,531252,181950,51.521226,-0.109598,Camden
92188,Cross Keys,"31      Endell Street, London",WC2H 9BA,530209,181177,51.514521,-0.124923,Camden
92190,Crown & Anchor,"137      Drummond Street, London",NW1 2HL,529358,182553,51.527082,-0.136661,Camden
92191,Crown & Anchor,"22      Neal Street, London",WC2H 9PS,530186,181144,51.51423,-0.125252,Camden
92251,Dive Bar T/A Aces & Eights,"156-158      Fortess Road, London, Greater London",NW5 2HP,529135,185784,51.55616,-0.138704,Camden
92253,Dominion Theatre,"The Dominion Theatre, 268-269      Tottenham Court Road, London",W1T 7AQ,529871,181441,51.516971,-0.129679,Camden
92260,Done Our Bit Club Ltd,"128A      Maygrove Road, London",NW6 2EP,525126,184752,51.547788,-0.196853,Camden
92264,Doric Arch,"Euston Station, Unit 50 Eversholt Street, London, Greater London",NW1 2HS,529586,182735,51.528674,-0.133309,Camden
92282,Earl of Camden,"55      Parkway, London",NW1 7PN,528800,183767,51.538119,-0.144256,Camden
92287,Eastnor Castle,"145      Chalton Street, London",NW1 1NR,529503,183267,51.533465,-0.134309,Camden
92305,Edinboro Castle,"57      Mornington Terrace, London",NW1 7RU,528766,183537,51.53606,-0.14483,Camden
92352,Exmouth Arms,"1      Starcross Street, London",NW1 2HR,529341,182609,51.527589,-0.136885,Camden
92374,Fifty Five Lounge,"31      Jamestown Road, London",NW1 7DB,528611,183962,51.539915,-0.146909,Camden
92391,Fitzroy Tavern,"16A      Charlotte Street, London",W1T 2LY,529516,181623,51.518688,-0.134726,Camden
92393,Flask Tavern,"77      Highgate West Hill, London",N6 6BU,528280,187337,51.57032,-0.150449,Camden
92428,Freemasons Arms,"32      Downshire Hill, London",NW3 1NT,527002,185773,51.556545,-0.169444,Camden
92434,Friend at Hand,"4      Herbrand Street, London",WC1N 1HX,530207,182113,51.522933,-0.124592,Camden
92444,Gallery Coffee Shop,"University Of London Union, Malet Street, London",WC1E 7HY,529752,182075,51.522696,-0.13116,Camden
92455,George Birkbeck Bar,"University Of London Birkbeck College, Malet Street",WC1E 7HX,529986,181893,51.521007,-0.127856,Camden
92458,George IV,"76      Willes Road, London, Greater London",NW5 3DL,528723,184909,51.548399,-0.144949,Camden
92475,Globe Lawn Tennis Club Bar,"190a      Haverstock Hill, London, Greater London",NW3 2AL,527398,185077,51.5502,-0.163986,Camden
92492,Grafton Arms,"72      Grafton Way, London",W1T 5DU,529222,182130,51.523312,-0.138775,Camden
92547,Hampstead Cricket Club,"Hampstead Cricket Club, Lymington Road, London",NW6 1HZ,525691,184932,51.54928,-0.188644,Camden
92567,Hare & Tortoise,"11-13      Brunswick Centre, London",WC1N 1AF,530246,182328,51.524856,-0.12395,Camden
92575,Hat & Tun,"3      Hatton Wall, London",EC1N 8HX,531337,182002,51.521674,-0.108355,Camden
92586,Hercules Pillar,"18      Great Queen Street, London",WC2B 5DG,530502,181365,51.516143,-0.120633,Camden
92692,Jack Horner,"235-236      Tottenham Court Road, London",W1T 7QN,529696,181638,51.518782,-0.132142,Camden
92697,Jacques Wine Bar,"Tavistock Hotel, 46-55      Tavistock Square, London",WC1H 9EU,529944,182253,51.524251,-0.128329,Camden
92711,Jeremy Bentham,"31      University Street, London",WC1E 6JL,529447,182169,51.523611,-0.135534,Camden
92719,Joe's,"78-79      Chalk Farm Road, London, Greater London",NW1 8AR,528261,184385,51.543804,-0.151812,Camden
92729,Junction Tavern,"101      Fortess Road, London",NW5 1AG,529027,185621,51.55472,-0.140306,Camden
92759,King William IV,"77      Hampstead High Street, London",NW3 1RE,526532,185642,51.555482,-0.176266,Camden
92778,Knights Templar,"95      Chancery Lane, London",WC2A 1DT,531102,181296,51.515375,-0.112003,Camden
92780,Koko,"1a      Camden High Street, London",NW1 0JH,529173,183470,51.535365,-0.13899,Camden
92784,Kopapa,"32-34      Monmouth Street, London, Greater London",WC2H 9HB,530054,181155,51.514359,-0.127163,Camden
92866,Lillie Langtry,"121      Abbey Road, London",NW6 4SL,525712,183939,51.54036,-0.188696,Camden
92881,Lockside Lounge,"75-89  West Yard, Camden Lock Place, London",NW1 8AF,528630,184085,51.541016,-0.146604,Camden
92900,London Pub,"Royal National Hotel, Bedford Way, London",WC1H 0JX,530025,182145,51.523262,-0.127202,Camden
92904,Lord John Russell P.H.,"91-93      Marchmont Street, London",WC1N 1AL,530112,182432,51.525821,-0.125842,Camden
92909,Lucas Arms,"245A      Gray's Inn Road, London",WC1X 8QY,530532,182741,51.528501,-0.119677,Camden
92916,Lyttleton Arms,"1      Camden High Street, London",NW1 7JE,529150,183432,51.535029,-0.139335,Camden
92923,Mabel's Tavern,"9      Mabledon Place, London",WC1H 9AZ,529989,182646,51.527773,-0.127536,Camden
92978,Marlborough Arms,"36      Torrington Place, London",WC1E 7HJ,529550,181922,51.521367,-0.134126,Camden
92980,Marquis Cornwallis,"31      Marchmont Street, London",WC1N 1AP,530144,182342,51.525005,-0.125415,Camden
93002,McGlynn Freehouse,"1-5      Whidborne Street, London",WC1H 8ET,530279,182729,51.528452,-0.123327,Camden
93081,Museum Inn/Astor Museum,"27      Montague Street, London",WC1B 5BH,530190,181748,51.519657,-0.124971,Camden
93082,Museum Tavern,"49      Great Russell Street, London",WC1B 3BA,530134,181584,51.518196,-0.125838,Camden
93085,My Old Dutch,"131-132      High Holborn, London",WC1V 6PS,530396,181524,51.517596,-0.122087,Camden
93110,Negozio Classica,"154      Regent's Park Road, London, Greater London",NW1 8XN,527927,184121,51.541499,-0.156708,Camden
93111,Nelsons Wine Bar Ltd,"48      Stanhope Street, London",NW1 3EX,529075,182495,51.526634,-0.140759,Camden
93115,New Ambassadors Theatre,"Ambassadors Theatre, West Street, London",WC2H 9ND,529997,181004,51.513006,-0.128026,Camden
93116,New Bloomsbury Set,"76      Marchmont Street, London, Greater London",WC1N 1AG,530133,182456,51.526032,-0.125531,Camden
93138,Night and Day Bar Imperial Hotel,"61-66      Russell Square, London",WC1B 5BA,530243,182038,51.522251,-0.124101,Camden
93152,Norfolk Arms,"28      Leigh Street, London",WC1H 9EP,530150,182525,51.526648,-0.125261,Camden
93157,North Star,"104      Finchley Road, London",NW3 5JJ,526416,184606,51.546198,-0.178311,Camden
93159,Northumberland Arms,"141      King's Cross Road, London",WC1X 9BJ,530776,182862,51.529532,-0.116117,Camden
93160,Northumberland Arms,"119      Tottenham Court Road, London",W1T 5AW,529315,182154,51.523506,-0.137426,Camden
93188,One Tun,"58-60      Goodge Street, London",W1T 4ND,529368,181673,51.519172,-0.136854,Camden
93189,O'Neill's,"73-77      Euston Road, London",NW1 2QS,530078,182770,51.528867,-0.126208,Camden
93195,O'Reilly's,"289-291      Kentish Town Road, London",NW5 2JS,528969,184977,51.548955,-0.141392,Camden
93211,Oxford Arms,"265      Camden High Street, London",NW1 7BU,528813,183994,51.540156,-0.143986,Camden
93215,Pakenham Arms Ltd,"1      Pakenham Street, London",WC1X 0LA,530898,182423,51.525559,-0.114522,Camden
93260,Pembroke,"150      Gloucester Avenue, London",NW1 8JA,528054,184200,51.54218,-0.154835,Camden
93261,Penderel's Oak,"New Penderel House, 283-287      High Holborn, London",WC1V 7HP,530856,181566,51.517867,-0.115445,Camden
93276,Philomenaâ€™s,"40      Great Queen Street, London",WC2B 5AA,530416,181252,51.515147,-0.121914,Camden
93277,Phineas,"25      Gordon Street, London",WC1H 0AH,529617,182365,51.525333,-0.133013,Camden
93374,Prince Albert PH,"163      Royal College Street, London",NW1 0SG,529240,184085,51.540876,-0.137799,Camden
93375,Prince Arthur,"80-82      Eversholt Street, London",NW1 1BX,529574,182878,51.529953,-0.133429,Camden
93377,Prince of Wales,"53      Highgate High Street, London",N6 5JX,528378,187404,51.5709,-0.149011,Camden
93378,Prince Of Wales Feathers,"8      Warren Street, London",W1T 5LD,529240,182225,51.524161,-0.138481,Camden
93380,Princess,"22      Chalcot Road, London",NW1 8LL,528135,183990,51.540283,-0.153758,Camden
93381,Princess Louise,"208      High Holborn, London",WC1V 7BW,530423,181490,51.517284,-0.12171,Camden
93386,Proud Camden Horse Hospital,"The Stables Market, Chalk Farm Road, London",NW1 8AH,528574,184193,51.541999,-0.147372,Camden
93403,Queen's Head,"66      Acton Street, London",WC1X 9NB,530635,182748,51.528541,-0.118191,Camden
93404,Queens Head & Artichoke,"32      Albany Street, London",NW1 4EA,528847,182424,51.526039,-0.14407,Camden
93408,Quinns,"65      Kentish Town Road, London",NW1 8NY,528941,184349,51.543317,-0.142011,Camden
93414,Railway,"100      West End Lane, London",NW6 2LU,525539,184574,51.546097,-0.190963,Camden
93434,Resident's Club Bar,"William Goodenough House, 35-42      Mecklenburgh Square, London",WC1N 2AN,530604,182456,51.525924,-0.118746,Camden
93447,Rising Sun,"46      Tottenham Court Road, London",W1T 2ED,529610,181683,51.519206,-0.13335,Camden
93483,Royal George,"8-14      Eversholt Street, London",NW1 1DG,529710,182697,51.528304,-0.131536,Camden
93536,Salsa!,"96      Charing Cross Road, London",WC2H 0JG,529920,181125,51.51412,-0.129104,Camden
93570,Secrets,"34-38      Eversholt Street, London",NW1 1DA,529618,182816,51.529386,-0.132818,Camden
93571,Secrets,"51      Parker Street, London",WC2B 5PS,530494,181405,51.516504,-0.120733,Camden
93572,Secrets,"309      Finchley Road, London",NW3 6EH,526101,185020,51.54998,-0.182703,Camden
93573,Secrets,"4      Gray's Inn Road, London",WC1X 8HG,531147,181655,51.5186,-0.111221,Camden
93586,Shaker and Company,"119      Hampstead Road, London, Greater London",NW1 3EE,529194,182651,51.528,-0.139001,Camden
93600,Simmons Bar,"28      Maple Street, London",W1T 6HP,529215,182011,51.522244,-0.138934,Camden
93607,Sir Chrisptopher Hatton,"4      Leather Lane, London",EC1N 7RA,531305,181650,51.518518,-0.108947,Camden
93608,Sir Colin Campbell,"264-266      Kilburn High Road, London",NW6 2BY,524947,184278,51.543577,-0.1996,Camden
93609,Sir John Oldcastle,"Farringdon Point, 29-35      Farringdon Road, London",EC1M 3JF,531496,181818,51.519983,-0.106133,Camden
93610,Sir Richard Steele,"97      Haverstock Hill, London",NW3 4RL,527781,184693,51.546681,-0.158604,Camden
93612,Sir Robert Peel,"108      Malden Road, London",NW5 4DA,528213,184910,51.548534,-0.152313,Camden
93619,Skinners Arms,"114      Judd Street, London",WC1H 9NT,530177,182667,51.527919,-0.124834,Camden
93622,Slatterys Bar,"69      Camden Road, London, Greater London",NW1 9EU,529213,184258,51.542437,-0.138125,Camden
93623,Smithy's Wine Bar,"15-17      Leeke Street, London, Greater London",WC1X 9HY,530626,182940,51.530268,-0.118249,Camden
93643,South Side Bar,"Royal National Hotel, Bedford Way, London",WC1H 0JX,530025,182145,51.523262,-0.127202,Camden
93644,Southampton Arms,"139      Highgate Road, London",NW5 1LE,528610,185757,51.556037,-0.146268,Camden
93649,Spearmint Rhino,"161      Tottenham Court Road, London",W1T 7NN,529376,182130,51.523276,-0.136557,Camden
93657,Spread Eagle,"141      Albert Street, London",NW1 7NB,528788,183657,51.537143,-0.144483,Camden
93665,St Aloysius Social Club,"Priests House, 20      Phoenix Road, London",NW1 1TA,529665,182954,51.530615,-0.13209,Camden
93680,St Martin's Theatre,"St Martins Theatre, West Street, London",WC2H 9NG,530029,180978,51.512765,-0.127575,Camden
93695,St Peters Italian Social Club,"St Peters Italian Church, 136      Clerkenwell Road, London",EC1R 5DL,531291,182058,51.522188,-0.108996,Camden
93791,Sway,"61-65      Great Queen Street, London",WC2B 5BZ,530468,181256,51.515171,-0.121149,Camden
93828,Tavistock Bar,"Tavistock Hotel, 46-55      Tavistock Square, London",WC1H 9EU,529944,182253,51.524251,-0.128329,Camden
93867,The Albert,"11      Princess Road, London",NW1 8JR,528230,183860,51.539085,-0.152436,Camden
93868,The Alliance,"40-42      Mill Lane, London",NW6 1NR,524809,185102,51.551012,-0.201297,Camden
93871,The Angel Inn,"37      Highgate High Street, London",N6 5JT,528501,187366,51.57053,-0.147251,Camden
93872,The Angel Public House,"61      St Giles High Street, London",WC2H 8LE,530012,181279,51.515483,-0.127722,Camden
93873,The Apple Tree,"45      Mount Pleasant, London",WC1X 0AE,531066,182196,51.52348,-0.112186,Camden
93874,The Arches,"7      Fairhazel Gardens, London",NW6 3QE,526250,184125,51.541921,-0.180875,Camden
93875,The Argyle,"1      Greville Street, London",EC1N 8PQ,531332,181723,51.519168,-0.108531,Camden
93876,The Assembly House,"292-294      Kentish Town Road, London",NW5 2TG,529028,185220,51.551125,-0.140453,Camden
93879,The Bar at TCR,"183      Tottenham Court Road, London",W1T 7PE,529457,181994,51.522036,-0.13544,Camden
93880,The Beaten Docket,"50-56      Cricklewood Broadway, London",NW2 3ET,524098,185372,51.553587,-0.211452,Camden
93890,The Black Lion,"274      Kilburn High Road, London",NW6 2BY,524947,184278,51.543577,-0.1996,Camden
93892,The Bleeding Heart Tavern,"19      Greville Street, London",EC1N 8SQ,531431,181750,51.519388,-0.107094,Camden
93895,The Blue Lion,"133      Gray's Inn Road, London",WC1X 8TZ,530854,182197,51.523538,-0.11524,Camden
93896,The Blue Sea Fish Bar,"143      Queen's Crescent, London",NW5 4ED,528217,185053,51.549809,-0.152204,Camden
93897,The Blues Kitchen,"111-113      Camden High Street, London, Greater London",NW1 7JN,529017,183635,51.536893,-0.141191,Camden
93898,The Boot,"116      Cromer Street, London",WC1H 8BS,530216,182639,51.527658,-0.124268,Camden
93899,The Bountiful Cow,"47-51      Eagle Street, London",WC1R 4AP,530661,181655,51.518712,-0.118221,Camden
93900,The Bree Louise,"69      Cobourg Street, London",NW1 2HH,529427,182577,51.527282,-0.135672,Camden
93903,The Cambridge Theatre,"Cambridge Theatre, Earlham Street, London",WC2H 9HU,530107,181063,51.51352,-0.126419,Camden
93909,The Carpenters Arms,"105      King's Cross Road, London",WC1X 9LR,530789,182762,51.528631,-0.115967,Camden
93910,The Carpenters Arms,"68-70      Whitfield Street, London",W1T 4EY,529381,181966,51.521801,-0.136545,Camden
93916,The Cock Tavern,"23      Phoenix Road, London",NW1 1HB,529715,183017,51.53117,-0.131347,Camden
93918,The College Arms,"18      Store Street, London",WC1E 7DH,529705,181768,51.519948,-0.13195,Camden
93920,The Constitution Public House,"42      St Pancras Way, London",NW1 0QT,529404,184029,51.540336,-0.135456,Camden
93923,The Court,"108A      Tottenham Court Road, London",W1T 5AA,529344,182097,51.522987,-0.13703,Camden
93926,The Crown,"43      Monmouth Street, London",WC2H 9DD,530079,181157,51.514371,-0.126788,Camden
93927,The Crown PH,"51      New Oxford Street, London",WC1A 1BL,530096,181436,51.516865,-0.126441,Camden
93936,The Dolphin,"44      Red Lion Street, London",WC1R 4PF,530702,181784,51.519862,-0.117583,Camden
93937,The Dolphin Public House,"47      Tonbridge Street, London",WC1H 9DW,530183,182765,51.528798,-0.124697,Camden
93939,The Dublin Castle,"94      Parkway, London",NW1 7AN,528702,183688,51.537432,-0.145712,Camden
93940,The Duke of Hamilton,"23-25      New End, London",NW3 1JD,526420,186018,51.558877,-0.177746,Camden
93941,The Duke of York,"7      Roger Street, London",WC1N 2PB,530768,182111,51.522794,-0.11651,Camden
93942,The Electric Ballroom,"184      Camden High Street, London",NW1 8QP,528883,183945,51.5397,-0.142995,Camden
93943,The Engineer,"65      Gloucester Avenue, London",NW1 8JH,528339,183967,51.540022,-0.150841,Camden
93944,The Enterprise,"2      Haverstock Hill, London",NW3 2BL,528171,184434,51.544257,-0.153092,Camden
93945,The Enterprise,"38      Red Lion Street, London",WC1R 4PN,530717,181831,51.520281,-0.117364,Camden
93947,The Euston Flyer,"83-87      Euston Road, London",NW1 2RA,529996,182716,51.528401,-0.127423,Camden
93949,The Fiddlers Elbow,"1      Malden Road, London",NW5 3HS,528275,184683,51.546471,-0.151503,Camden
93950,The Fitzrovia,"18      Goodge Street, London",W1T 2QD,529504,181760,51.519922,-0.134863,Camden
93951,The Flask Public House,"14      Flask Walk, London",NW3 1HE,526482,185794,51.55685,-0.176933,Camden
93960,The Garden Gate,"14      South End Road, London",NW3 2QE,527274,185571,51.554668,-0.165595,Camden
93964,The George,"8      Great Queen Street, London",WC2B 5DG,530502,181365,51.516143,-0.120633,Camden
93965,The George,"250      Haverstock Hill, London",NW3 2AE,527248,185232,51.551627,-0.166093,Camden
93969,The Glass Bar,"West Lodge, 190      Euston Road, London",NW1 2EF,529640,182549,51.526981,-0.132599,Camden
93970,The Golden Lion,"88      Royal College Street, London",NW1 0TH,529450,183751,51.537827,-0.134895,Camden
93974,The Good Mixer,"28-30      Inverness Street, London",NW1 7HJ,528803,183937,51.539646,-0.144151,Camden
93977,The Grand Union,"102-104      Camden Road, London",NW1 9EA,529184,184130,51.541303,-0.138589,Camden
93979,The Great Nepalese Restaurant,"48      Eversholt Street, London",NW1 1DA,529618,182816,51.529386,-0.132818,Camden
93982,The Griffin,"125      Clerkenwell Road, London",EC1R 5DB,531051,181981,51.521552,-0.112482,Camden
93989,The Harrison,"28      Harrison Street, London",WC1H 8JF,530448,182620,51.527433,-0.120932,Camden
93990,The Hawley Arms,"2      Castlehaven Road, London",NW1 8QU,528730,184206,51.54208,-0.145105,Camden
93993,The Holly Bush,"22      Holly Mount, London",NW3 6SG,526322,185870,51.557569,-0.179212,Camden
93994,The Hon. Soc. Of Gray's Inn,"8      South Square, London",WC1R 5EU,531010,181712,51.519135,-0.113173,Camden
93996,The Hope,"15      Tottenham Street, London",W1T 2AJ,529464,181812,51.520399,-0.135406,Camden
93997,The Horse Shoe,"28      Heath Street, London",NW3 6TE,526378,185673,51.555786,-0.178476,Camden
94002,The Ice Wharf,"Suffolk Wharf, 28-30      Jamestown Road, London",NW1 7BY,528572,183991,51.540193,-0.14746,Camden
94010,The Lady Ottoline,"11a      Northington Street, London, Greater London",WC1N 2JF,530891,182038,51.522101,-0.114766,Camden
94011,The Lamb,"94      Lamb's Conduit Street, London",WC1N 3LZ,530597,182133,51.523023,-0.118966,Camden
94012,The Lansdowne,"90      Gloucester Avenue, London",NW1 8HX,528116,184169,51.541887,-0.153967,Camden
94015,The Leighton Arms,"101      Brecknock Road, London",N7 0DA,529545,185370,51.552363,-0.13293,Camden
94021,The Lock Tavern,"35      Chalk Farm Road, London",NW1 8AJ,528507,184295,51.542931,-0.148286,Camden
94023,The Lord Palmerston,"33      Dartmouth Park Hill, London",NW5 1HU,528986,186163,51.5596,-0.140699,Camden
94024,The Lord Southampton,"2 Southampton Road, London",NW5 4HX,527929,185063,51.549973,-0.156337,Camden
94025,The Lord Stanley,"51      Camden Park Road, London",NW1 9BH,529779,184804,51.547223,-0.129766,Camden
94027,The Lower Ground Bar,"269      West End Lane, London",NW6 1QS,525476,185073,51.550604,-0.191693,Camden
94028,The Lukin,"4      Conway Street, London",W1T 6BB,529165,181993,51.522093,-0.139646,Camden
94032,The Monarch,"40-42      Chalk Farm Road, London",NW1 8BG,528495,184299,51.54297,-0.148472,Camden
94033,The Montague on the Gardens,"15      Montague Street, London",WC1B 5BJ,530147,181815,51.520269,-0.125566,Camden
94037,The Newmarket Arms,"17      York Way, London",N7 9QG,530042,184356,51.543128,-0.126141,Camden
94042,The Old Bell,"38      Kilburn High Road, London",NW6 5UA,525489,183575,51.537139,-0.192039,Camden
94043,The Old Crown PH,"33      New Oxford Street, London",WC1A 1BH,530180,181451,51.51699,-0.125225,Camden
94045,The Old Eagle Public House,"251      Royal College Street, London",NW1 9LU,529102,184327,51.543092,-0.139699,Camden
94047,The Old Nick,"21-22      Sandland Street, London",WC1R 4PZ,530764,181734,51.519398,-0.116708,Camden
94048,The Old Oak,"1      Mansfield Road, London",NW3 2JD,528262,185611,51.554813,-0.151338,Camden
94049,The Old Red Lion,"72      High Holborn, London",WC1V 6LS,530736,181587,51.518075,-0.117166,Camden
94050,The One Tun,"125      Saffron Hill, London, Greater London",EC1N 8QS,531450,181831,51.520111,-0.106791,Camden
94053,The Oxford Pub,"256      Kentish Town Road, London",NW5 2AA,529029,185097,51.550019,-0.140483,Camden
94060,The Perseverance,"63      Lamb's Conduit Street, London",WC1N 3NB,530612,182020,51.522004,-0.118792,Camden
94063,The Pineapple Public House,"51      Leverton Street, London",NW5 2NX,529085,185485,51.553493,-0.139534,Camden
94065,The Place Theatre Bar,"The Place Theatre, 17      Duke's Road, London",WC1H 9AB,529894,182577,51.527175,-0.128944,Camden
94066,The Plough,"27      Museum Street, London",WC1A 1LH,530119,181551,51.517903,-0.126067,Camden
94068,The Polish Bar (Na Zdrowie),"6      Little Turnstile, London",WC1V 7DX,530600,181513,51.51745,-0.119152,Camden
94071,The Priory Tavern,"250      Belsize Road, London",NW6 4BT,525514,183682,51.538104,-0.19164,Camden
94072,The Purple Turtle,"61-63      Crowndale Road, London",NW1 1TN,529287,183385,51.534584,-0.137378,Camden
94074,The Queens,"49      Regent's Park Road, London",NW1 8XD,527856,184049,51.540868,-0.157758,Camden
94075,The Queens Larder,"1      Queen Square, London",WC1N 3AR,530342,181945,51.521392,-0.122709,Camden
94081,The Rocket,"120      Euston Road, London",NW1 2AL,529870,182710,51.528384,-0.129226,Camden
94082,The Roebuck,"15      Pond Street, London",NW3 2PN,527149,185483,51.553905,-0.167415,Camden
94087,The Rugby Tavern,"19      Great James Street, London",WC1N 3ES,530717,181986,51.521674,-0.117292,Camden
94088,The Seven Stars,"53-54      Carey Street, London",WC2A 2JB,530992,181246,51.51496,-0.113605,Camden
94089,The Sheephaven Bay,"2      Mornington Street, London",NW1 7QD,528957,183450,51.535235,-0.14211,Camden
94090,The Ship Tavern,"12      Gate Street, London",WC2A 3HP,530612,181492,51.517259,-0.118987,Camden
94091,The Slice Bar (Cupola House),"15-17      Alfred Place, London",WC1E 7EB,529618,181757,51.519869,-0.133222,Camden
94100,The Square Pig,"30-32      Procter Street, London",WC1V 6NZ,530596,181635,51.518548,-0.119165,Camden
94101,The Squares Tavern & Wine Bar,"26      Tolmer's Square, London",NW1 2PE,529307,182469,51.526339,-0.137426,Camden
94102,The Stag,"67      Fleet Road, London",NW3 2QU,527452,185409,51.553181,-0.163088,Camden
94103,The Star,"47      Chester Road, London",N19 5DF,528838,186588,51.563462,-0.142676,Camden
94106,The Sun,"21      Drury Lane, London",WC2B 5RH,530323,181236,51.515016,-0.123245,Camden
94107,The Swan,"7      Cosmo Place, London",WC1N 3AP,530341,181924,51.521195,-0.122731,Camden
94114,The Victory Public House,"152      Albany Street, London",NW1 4BX,528842,182788,51.529312,-0.144023,Camden
94115,The Vine,"86      Highgate Road, London",NW5 1PB,528712,185669,51.555232,-0.144844,Camden
94116,The Washington,"50      England's Lane, London",NW3 4UE,527513,184605,51.545951,-0.162485,Camden
94117,The Water Rats Club,"328      Gray's Inn Road, London",WC1X 8BZ,530547,182805,51.529073,-0.119437,Camden
94119,The Wells Tavern,"30      Well Walk, London",NW3 1BX,526721,186030,51.558917,-0.173402,Camden
94121,The Wheatsheaf,"25      Rathbone Place, London",W1T 1JB,529571,181523,51.517777,-0.13397,Camden
94122,The White Horse,"154-156      Fleet Road, London",NW3 2QX,527450,185478,51.553802,-0.163092,Camden
94124,The World's End,"174      Camden High Street, London",NW1 0NE,528951,183826,51.538624,-0.142073,Camden
94125,The York & Albany P.H,"127      Parkway, London",NW1 7PS,528673,183551,51.536207,-0.146165,Camden
94126,The Yorkshire Grey,"2 Theobald's Road, London",WC1X 8PN,530953,181976,51.521529,-0.113896,Camden
94182,Troy Club,"22      Hanway Street, London",W1T 1UQ,529706,181430,51.51691,-0.132074,Camden
94183,Truckles Wine Bar,"Pied Bull Court, Galen Place, London",WC1A 2JR,530255,181629,51.518573,-0.124093,Camden
94192,Two Brewers,"40      Monmouth Street, London",WC2H 9EP,530046,181034,51.513265,-0.127323,Camden
94196,Undersolo,"22      Inverness Street, London",NW1 7HJ,528803,183937,51.539646,-0.14415,Camden
94199,Unicorn,"227      Camden Road, London",NW1 9AA,529755,184947,51.548505,-0.130074,Camden
94213,Vats Wine Bar,"51      Lamb's Conduit Street, London",WC1N 3NB,530612,182020,51.522004,-0.118792,Camden
94214,Vault 139,"139-143      Whitfield Street, London",W1T 5EP,529211,182167,51.523647,-0.138934,Camden
94278,Wetherspoons,"Unit 7 The O2 Centre, 255      Finchley Road, London",NW3 6LU,526195,184796,51.547954,-0.181428,Camden
94288,White Hart,"191      Drury Lane, London",WC2B 5QD,530283,181358,51.51613,-0.123776,Camden
94345,Ye Olde Mitre,"1      Ely Court, London",EC1N 6SJ,531410,181645,51.518449,-0.107436,Camden
94346,Ye Olde Swiss Cottage,"98      Finchley Road, London",NW3 5EL,526689,184197,51.542461,-0.174523,Camden
94347,Ye Olde White Bear,"Ye Olde White Bear, Well Road, London",NW3 1LJ,526568,186006,51.558736,-0.175617,Camden
94387,Abbey,"St Clare House, 30-33 Minories, London",EC3N 1DD,533667,181033,51.51242,-0.075158,City of London
94401,Agenda,"3 Minster Court, London",EC3R 7DD,533262,180790,51.510332,-0.081083,City of London
94406,All Bar One,"175 Bishopsgate, London",EC2A 2JN,533322,181841,51.519763,-0.079822,City of London
94407,All Bar One,"44-46 Ludgate Hill, London",EC4M 7DE,531824,181170,51.514084,-0.10165,City of London
94408,All Bar One,"Public House, 16 Byward Street, London",EC3R 5BA,533412,180735,51.509802,-0.078944,City of London
94409,All Bar One,"Retail Unit, 103 Cannon Street, London",EC4N 5AG,532650,180933,51.511761,-0.089843,City of London
94410,All Bar One,"Retail Unit, 107-108 Houndsditch, London",EC3A 7BD,533382,181395,51.51574,-0.079126,City of London
94413,Amber Bar,"City Point, 1 Ropemaker Street, London",EC2Y 9AW,532644,181787,51.519437,-0.089608,City of London
94456,Astronomer,"125-129 Middlesex Street, London",E1 7JF,533411,181623,51.517782,-0.078622,City of London
94462,Babble City,"45 Old Broad Street, London",EC2N 1HT,533042,181382,51.515695,-0.084028,City of London
94474,Balls Brothers @ Minster Court,"1 Minster Pavement, London",EC3R 7PP,533262,180844,51.510817,-0.081063,City of London
94475,Balls Brothers Austin Friars,"10-11 Austin Friars, London",EC2N 2HG,532953,181382,51.515716,-0.08531,City of London
94476,Balls Brothers Ltd,"5-6 Carey Lane, London",EC2V 8AE,532195,181335,51.51548,-0.096245,City of London
94477,Balls Brothers Shoe Lane,"73 Shoe Lane, London",EC4A 3BQ,531468,181396,51.516198,-0.106693,City of London
94478,Balls Brothers Wine Bar,"Retail Unit, The Baltic Exchange, 38 St Mary Axe, London",EC3A 8EX,533308,181310,51.514985,-0.080224,City of London
94479,"Balls Brothers, Mark Lane","2 Minster Court, London",EC3R 7BB,533293,180859,51.510936,-0.080611,City of London
94481,Bangers,"Retail Unit, 2-12 Wilson Street, London",EC2M 2TE,532947,181794,51.519428,-0.085241,City of London
94488,Bar 20,"20 Fenchurch Street, London",EC3M 3BY,533032,180922,51.511572,-0.084345,City of London
94516,Bavarian Beerhouse,"9 Crutched Friars, London",EC3N 2AU,533510,180902,51.51128,-0.077469,City of London
94573,Be At One,"100 Fenchurch Street, London",EC3M 5JD,533422,181079,51.512891,-0.078669,City of London
94574,Be At One,"28 King William Street, London",EC4R 9AT,532842,180815,51.510646,-0.087122,City of London
94576,Be At One,"Retail Unit, 48 Gresham Street, London",EC2V 7AY,532510,181280,51.514912,-0.091729,City of London
94583,Bedales Wine Bar,"Retail Unit, 55 Leadenhall Market, London",EC3V 1LT,533067,181021,51.512454,-0.083804,City of London
94626,Bishops Finger,"The Bishops Finger Public House, 9-10 West Smithfield, London",EC1A 9JR,531791,181661,51.518495,-0.101943,City of London
94662,Bottlescrue,"Basement Unit, 31-33 Foster Lane, London",EC2V 6HD,532161,181339,51.515524,-0.096733,City of London
94678,Brokers Wine Bar,"First Floor Retail Unit, 6-9 Leadenhall Market, London",EC3V 1LR,533094,181048,51.51269,-0.083405,City of London
94680,Browns,"8 Old Jewry, London",EC2R 8DN,532585,181200,51.514167,-0.090679,City of London
94737,Cannick Tapps,"109 Cannon Street, London",EC4N 5AD,532660,180932,51.51175,-0.089699,City of London
94783,Cheshire Cheese,"The Cheshire Cheese Public House, 48 Crutched Friars, London",EC3N 2AP,533426,180906,51.511327,-0.078678,City of London
94806,"Circle Bar, Level 0","Barbican Arts And Conference Centre, Silk Street, London",EC2Y 8DS,532343,181822,51.519822,-0.093931,City of London
94811,City Boot,"3 Bastion Highwalk, London",EC2Y 5AP,532346,181590,51.517736,-0.093975,City of London
94815,City Flogger,"60 Mark Lane, London",EC3R 7ND,533350,180839,51.510752,-0.079797,City of London
94816,City Golf & Health Clubs,"40 Coleman Street, London",EC2R 5EH,532598,181329,51.515332,-0.090443,City of London
94820,City of London Distillery,"Basement Retail Unit, 24 Bride Lane, London",EC4Y 8DT,531590,181147,51.513932,-0.105029,City of London
94822,City Sports Pub and Grill,"Retail Unit, 5 Minories, London",EC3N 1BJ,533633,181139,51.51338,-0.075607,City of London
94828,Club Gascon,"57 West Smithfield, London",EC1A 9DS,531915,181675,51.518601,-0.100151,City of London
94829,"Club Ten, Grange St Pauls Hotel","10 Godliman Street, London",EC4V 5AJ,531982,181025,51.512744,-0.099429,City of London
94868,Core,"Aldermary House, 15 Queen Street, London",EC4N 1TX,532440,181063,51.512978,-0.092818,City of London
94869,Corney & Barrow,"111 Old Broad Street, London",EC2N 1AP,532982,181328,51.515233,-0.084913,City of London
94870,Corney & Barrow,"14 Mason's Avenue, London",EC2V 5BT,532598,181385,51.515826,-0.090422,City of London
94871,Corney & Barrow,"25 Fenchurch Avenue, London",EC3M 5AD,533277,181067,51.512818,-0.080762,City of London
94873,Corney & Barrow,"5 Exchange Square, London",EC2A 2EH,533296,181828,51.519652,-0.080201,City of London
94874,Corney & Barrow Wine Bar,"Retail Unit 2, 3 Fleet Place, London",EC4M 7RA,531676,181415,51.51632,-0.10369,City of London
94875,Corney & Barrow Wine Bars,"12 Great New Street, London",EC4A 3BN,531340,181369,51.515976,-0.108547,City of London
94876,"Corney & Barrow, Level 1, Unit 2","City Point, 1 Ropemaker Street, London",EC2Y 9AW,532644,181787,51.519437,-0.089608,City of London
94877,"Corney & Barrow, Unit 3, Stock Exch","London Stock Exchange, 10 Paternoster Square, London",EC4M 7DY,532017,181275,51.514982,-0.098831,City of London
94901,Crab Tavern,"37 Broadgate Circle, London",EC2M 2QS,533056,181749,51.518998,-0.083688,City of London
94902,Craft Beer Co,"29-31 Mitre Street, London",EC3A 5BU,533413,181196,51.513936,-0.078755,City of London
94904,Crosse Keys PH,"7 Gracechurch Street, London",EC3V 0DR,532981,181051,51.512743,-0.085031,City of London
94912,Dado 54,"54 Farringdon Street, London",EC4A 4BD,531558,181500,51.517111,-0.105358,Islington
94915,Davy's,"Woolgate Exchange, 25 Basinghall Street, London",EC2V 5HA,532568,181424,51.516192,-0.090839,City of London
94916,"Davys, 1 Plantation Place","Unit 8 Plantation Place, 20 Mincing Lane, London",EC3M 3BD,533177,180878,51.511143,-0.082274,City of London
94922,Devonshire Terrace,"Offices, 9 Devonshire Square, London",EC2M 4YF,533432,181538,51.517013,-0.078351,City of London
94928,Dirty Dicks Public House,"202 Bishopsgate, London",EC2M 4NR,533340,181628,51.517835,-0.079643,City of London
94929,Dirty Martini,"124-127 Minories, London",EC3N 1NT,533614,181032,51.512415,-0.075922,City of London
94930,Dirty Martini,"158 Bishopsgate, London",EC2M 4LX,533290,181561,51.517254,-0.080388,City of London
94931,Dirty Martini,"Retail Unit, Three Keys House, 130 Wood Street, London",EC2V 6DL,532294,181233,51.51454,-0.094857,City of London
94932,Dirty Martini Monument,"1 Lovat Lane, London",EC3R 8DT,533052,180784,51.510328,-0.084109,City of London
94941,Duke of Somerset,"Duke Of Somerset Public House, 15 Little Somerset Street, London",E1 8AH,533759,181181,51.513728,-0.073777,City of London
94943,East India Arms,"East India Arms Public House, 67 Fenchurch Street, London",EC3M 4BR,533418,181038,51.512515,-0.078743,City of London
94984,El Vino Co Ltd,"30 New Bridge Street, London",EC4V 6BJ,531666,180999,51.512575,-0.10399,City of London
94985,El Vino Co Ltd,"47 Fleet Street, London",EC4Y 1BJ,531301,181146,51.51399,-0.109192,City of London
95006,Emperor Wine Bar,"Emperor House, 35 Vine Street, London",EC3N 2PX,533586,180978,51.511936,-0.076346,City of London
95007,Enoteca,"10 Basinghall Street, London",EC2V 5BQ,532568,181372,51.515716,-0.090859,City of London
95008,Enoteca,"20-21 Watling Street, London",EC4M 9BR,532356,181061,51.51298,-0.094028,City of London
95009,Enoteca,"Retail Unit 7, Western Courtyard, Devonshire Square, London",EC2M 4AE,533414,181495,51.516632,-0.078627,City of London
95010,Enoteca Rabezzana,"62-63 Long Lane, London",EC1A 9EJ,531930,181744,51.519217,-0.099909,City of London
95045,Forge,"24 Cornhill, London",EC3V 3ND,532834,181100,51.513218,-0.08713,City of London
95046,Forge Bar & Club,"Basement Members Club, 24 Cornhill, London",EC3V 3ND,532834,181100,51.513218,-0.08713,City of London
95047,Fox Fine Wines,"118 London Wall, London",EC2Y 5JA,532692,181597,51.517718,-0.088988,City of London
95060,George Bar,"Andaz Hotel, 40 Liverpool Street, London",EC2M 7QN,533231,181571,51.517358,-0.081234,City of London
95071,Goodman City Ltd,"Retail Unit, 11 Old Jewry, London",EC2R 8DU,532595,181215,51.514308,-0.090529,City of London
95079,Grand Union,"Grand Union Public House, Rolls Passage, London",EC4A 1HL,531130,181401,51.516321,-0.11156,City of London
95094,Hamilton Hall,"Retail Unit 32 Upper Concourse, Liverpool Street Station, Liverpool Street, London",EC2M 7PY,533215,181761,51.519069,-0.081393,City of London
95096,Hand & Shears Public House,"Hand And Shears Public House, 1 Middle Street, London",EC1A 7JA,532022,181769,51.519421,-0.098574,City of London
95112,Harrild and Sons,"26 Farringdon Street, London",EC4A 4AB,531654,181347,51.515714,-0.104033,City of London
95113,Harry's Bar,"17-20 Ironmonger Lane, London",EC2V 8EP,532510,181260,51.514732,-0.091736,City of London
95114,Harry's Bar,"5 Abchurch Yard, London",EC4N 7BA,532735,180909,51.511516,-0.088628,City of London
95115,Harry's Bar & Pizzeria,"15 Black Friars Lane, London",EC4V 6ER,531701,181037,51.512917,-0.103471,City of London
95169,Inn of Court,"18 Holborn, London",EC1N 2LE,531214,181559,51.517721,-0.110291,City of London
95172,Isis Bar,"8-10 Cooper's Row, London",EC3N 2BQ,533573,180854,51.510833,-0.076579,City of London
95194,Jamaica Wine House,"St Michael's Alley, London",EC3V 9DS,532938,181082,51.513032,-0.085639,City of London
95195,Jamies,"1 Alban Highwalk, London",EC2Y 5AS,532346,181590,51.517736,-0.093975,City of London
95196,Jamies,"2A Suffolk Lane, London",EC4R 0AT,532689,180845,51.510961,-0.089314,City of London
95197,Jamies,"47 Ludgate Hill, London",EC4M 7JZ,531764,181141,51.513837,-0.102525,City of London
95198,Jamies,"5 Groveland Court, London",EC4M 9EH,532349,181094,51.513278,-0.094117,City of London
95199,Jamies,"Cree House, 20 Creechurch Lane, London",EC3A 5AY,533405,181159,51.513614,-0.078884,City of London
95200,Jamies,"Retail Unit 1, 1 Fleet Place, London",EC4M 7RA,531676,181415,51.51632,-0.10369,City of London
95201,Jamies,"Retail Unit, River House, 119-121 Minories, London",EC3N 1DR,533642,180927,51.511473,-0.075559,City of London
95204,Jamies St Mary At Hill,"2 St Mary At Hill, London",EC3R 8EE,533080,180742,51.509935,-0.083722,City of London
95205,Jamie's Wine Bar and Restaurant,"36 Tudor Street, London",EC4Y 0BH,531364,180998,51.512636,-0.10834,City of London
95222,Kanaloa,"Retail Unit, Hill House, Shoe Lane, London",EC4A 3BQ,531468,181396,51.516198,-0.106693,City of London
95225,Karaoke Box,"Jarvis House, 12 Smithfield Street, London",EC1A 9LA,531739,181601,51.517977,-0.102714,City of London
95230,Kings Stores Public House,"14 Widegate Street, London",E1 7HP,533438,181668,51.518181,-0.078216,City of London
95251,La Tasca,"16 Eldon Street, London",EC2M 7LA,532977,181651,51.518136,-0.084863,City of London
95264,Le Paris Grill,"6 Little Britain, London",EC1A 7BX,532067,181511,51.517092,-0.098023,City of London
95292,Liberty Bounds,"Retail Unit, 15 Trinity Square, London",EC3N 4AA,533422,180731,51.509755,-0.078801,City of London
95300,Lloyds Club Limited,"42 Crutched Friars, London",EC3N 2AP,533426,180906,51.511327,-0.078678,City of London
95306,Loose Cannon,"13-16 Allhallows Lane, London",EC4R 3UL,532606,180845,51.51098,-0.09051,City of London
95327,Magpie & Stump,"18 Old Bailey, London",EC4M 7EP,531737,181342,51.51565,-0.102839,City of London
95350,Merchant House,"13 Well Court, London",EC4M 9DN,532407,181097,51.513292,-0.093281,City of London
95351,Mermaid Theatre,"Mermaid Conference And Events Centre, Puddle Dock, London",EC4V 3DB,531811,180881,51.51149,-0.101945,City of London
95483,Number 25,"25 Birchin Lane, London",EC3V 9DJ,532898,181080,51.513015,-0.086216,City of London
95496,Old Red Cow,"The Old Red Cow Public House, 71-72 Long Lane, London",EC1A 9EJ,531926,181742,51.5192,-0.099967,City of London
95502,One Under Lime,"1 Leadenhall Place, London",EC3M 7DX,533147,181101,51.513154,-0.082622,City of London
95507,Oriole,"4 East Poultry Avenue, London",EC1A 9LH,531682,181677,51.518673,-0.103506,City of London
95511,Oyster Shed,"1 Angel Lane, London",EC4R 3AB,532659,180703,51.509692,-0.0898,City of London
95523,Patch,"58-62 Carter Lane, London",EC4V 5EA,531829,181085,51.513319,-0.10161,City of London
95536,Pause,"Basement Retail Unit, 80 Leadenhall Street, London",EC3A 3DH,533445,181141,51.513443,-0.078315,City of London
95537,Pavilion End,"The Pavilion End Public House, 23 Watling Street, London",EC4M 9BR,532356,181061,51.51298,-0.094029,City of London
95538,Pegasus Bar,"1 Crown Office Row, London",EC4Y 7HH,531206,180982,51.512538,-0.110621,City of London
95544,Piano Smithfield,"14 Long Lane, London",EC1A 9PN,531991,181810,51.519796,-0.099006,City of London
95553,Pitcher & Piano,"28 Cornhill, London",EC3V 3ND,532834,181100,51.513218,-0.08713,City of London
95567,Planet Of The Grapes,"9-10 Bulls Head Passage, London",EC3V 1LU,533040,181032,51.512559,-0.084189,City of London
95568,Planet of the Grapes Ltd,"Basement Unit, 74-82 Queen Victoria Street, London",EC4N 4SJ,532385,181020,51.512596,-0.093627,City of London
95654,Punch Tavern,"The Punch Tavern Public House, 99 Fleet Street, London",EC4Y 1DE,531604,181158,51.514027,-0.104823,City of London
95661,"Quarter Jacks, Grange St Pauls Hotel","10 Godliman Street, London",EC4V 5AJ,531982,181025,51.512744,-0.099429,City of London
95667,Reflex,"17 Watling Street, London",EC4M 9BB,532305,181044,51.512839,-0.09477,City of London
95712,Revolution,"Retail Unit, 1 America Square, London",EC3N 2LS,533605,180876,51.511024,-0.076111,City of London
95713,Revolution,"Retail Unit, 140-144 Leadenhall Street, London",EC3V 4QT,533115,181166,51.513737,-0.083058,City of London
95735,Rudd's,"Retail Unit, 148 Queen Victoria Street, London",EC4V 4BY,531836,180969,51.512266,-0.101553,City of London
95749,Salotto 31,"Retail Unit, 31 Lovat Lane, London",EC3R 8EB,533056,180721,51.50976,-0.084076,City of London
95750,"Sammie's Bar, Basement & Ground","The Angel Public House, 14 Crosswall, London",EC3N 2LJ,533628,180955,51.511728,-0.07575,City of London
95759,"Searcy`s Artiste`s Bar, Level - 1","Barbican Arts And Conference Centre, Silk Street, London",EC2Y 8DS,532343,181822,51.519822,-0.093931,City of London
95760,"Searcy`s, Stalls Bar, Level -1","Barbican Arts And Conference Centre, Silk Street, London",EC2Y 8DS,532343,181822,51.519822,-0.093931,City of London
95764,Searcys Bars @ GSM & D,"Guildhall School Of Music And Drama, 1 Milton Street, London",EC2Y 9BH,532537,181859,51.520109,-0.091122,City of London
95765,Searcy's Champagne Bar,"13 Upper Cheapside Passage, London",EC2V 6AG,532284,181175,51.514021,-0.095023,City of London
95768,"Searcy's Theatre Bar, Level -1","Barbican Arts And Conference Centre, Silk Street, London",EC2Y 8DS,532343,181822,51.519822,-0.093931,City of London
95774,Shaws Booksellers,"Shaws Booksellers Public House, 31-34 St Andrew's Hill, London",EC4V 5DE,531851,181005,51.512586,-0.101323,City of London
95781,"Silks Cocktail Bar,Grange St Pauls","10 Godliman Street, London",EC4V 5AJ,531982,181025,51.512744,-0.099429,City of London
95788,Sir John Hawkshaw,"Retail Unit 4, Cannon Street Station, Cannon Street, London",EC4N 6AP,532606,180845,51.51098,-0.090509,City of London
95791,"Sky Bar, Grange St Pauls Hotel","10 Godliman Street, London",EC4V 5AJ,531982,181025,51.512744,-0.099429,City of London
95796,Slug and Lettuce,"2 Love Lane, London",EC2V 7JQ,532371,181412,51.516131,-0.093681,City of London
95797,Slug and Lettuce,"29 St Mary Axe, London",EC3A 8AA,533246,181312,51.515027,-0.081116,City of London
95798,Slug and Lettuce,"Ground Floor Retail Unit, 5-11 Fetter Lane, London",EC4A 1BR,531289,181194,51.514415,-0.109347,City of London
95832,St Brides Foundation,"Bridewell Theatre, 14 Bride Lane, London",EC4Y 8EQ,531583,181082,51.513349,-0.105154,City of London
95833,St Brides Tavern,"St Brides Tavern Public House, 1 Bridewell Place, London",EC4V 6AP,531619,181055,51.513098,-0.104646,City of London
95859,Steam & Rye,"147 Leadenhall Street, London",EC3V 4QT,533115,181166,51.513737,-0.083058,City of London
95860,Steam Wine Bar,"1 St George's Lane, London",EC3R 8DJ,533013,180802,51.510498,-0.084664,City of London
95891,Swingers,"Retail Unit 1, Bankside House, 107-112 Leadenhall Street, London",EC3A 4AF,533284,181174,51.513778,-0.080621,City of London
95932,The Albion,"The Albion Public House, 2-3 New Bridge Street, London",EC4V 6AA,531614,181138,51.513836,-0.104687,City of London
95934,The Alice,"Five Acre Square, 133-137 Houndsditch, London",EC3A 7BX,533478,181373,51.51552,-0.077752,City of London
95935,The Angel,"The Angel Public House, 14 Crosswall, London",EC3N 2LJ,533628,180955,51.511728,-0.07575,City of London
95937,The Anthologist,"58 Gresham Street, London",EC2V 7BB,532553,181270,51.514812,-0.091113,City of London
95938,The Arbitrager,"27A Throgmorton Street, London",EC2N 2AN,532898,181310,51.515091,-0.086129,City of London
95941,The Banker,"The Banker Public House, Cousin Lane, London",EC4R 3TE,532523,180696,51.509661,-0.091761,City of London
95944,The Bell Public House,"29 Bush Lane, London",EC4R 0AN,532681,180852,51.511017,-0.089427,City of London
95947,The Blackfriar,"Blackfriars Tavern, 174 Queen Victoria Street, London",EC4V 4EG,531683,180949,51.512131,-0.103764,City of London
95948,The Bootlegger's Club Ltd,"Basement Retail Unit, 25-26 Lime Street, London",EC3M 7HR,533095,180966,51.511953,-0.083422,City of London
95949,The Botanist,"35 Broadgate Circle, London",EC2M 2QS,533063,181741,51.518924,-0.08359,City of London
95950,The Breakfast Club,"12-16 Artillery Lane, London",E1 7LS,533430,181687,51.518353,-0.078324,City of London
95952,The Bridewell Theatre,"St Brides Foundation Institute, 14 Bride Lane, London",EC4Y 8EQ,531583,181082,51.513349,-0.105154,City of London
95953,The Britannia Public House,"20 Monument Street, London",EC3R 8AJ,532922,180734,51.509909,-0.086,City of London
95955,The Bull,"The Bull Public House, 4-5 Devonshire Row, London",EC2M 4RH,533308,181527,51.516935,-0.080142,City of London
95956,The Bunch Of Grapes,"14 Lime Street, London",EC3M 7AN,533094,181009,51.51234,-0.08342,City of London
95957,The Butcher's Hook and Cleaver,"The Butcher's Hook And Cleaver Public House, 61 West Smithfield, London",EC1A 9DY,531886,181705,51.518877,-0.100557,City of London
95960,The Centre Page,"The Centre Page Public House, 29-33 Knightrider Street, London",EC4V 5BH,532030,181009,51.512589,-0.098744,City of London
95966,The Cock & Woolpack,"The Cock And Woolpack Public House, 6 Finch Lane, London",EC3V 3NA,532927,181156,51.5137,-0.08577,City of London
95967,The Cockpit,"The Cockpit Public House, 7 St Andrew's Hill, London",EC4V 5BY,531849,181052,51.513018,-0.101334,City of London
95971,The Counting House,"The Counting House Public House, 50 Cornhill, London",EC3V 3PD,532982,181102,51.513202,-0.084998,City of London
95973,The Crown and Sugar Loaf,"Crown And Sugarloaf Public House, 26 Bride Lane, London",EC4Y 8DT,531590,181147,51.513932,-0.105029,City of London
95974,The Crutched Friar,"The Crutched Friar Public House, 39-41 Crutched Friars, London",EC3N 2AE,533418,180904,51.51132,-0.078793,City of London
95976,The Draft House,"14 Seething Lane, London",EC3N 4AX,533338,180739,51.509847,-0.080008,City of London
95977,The Draft House,"Retail Unit, 1 Plough Place, London",EC4A 1DE,531312,181451,51.516728,-0.108919,City of London
95978,The Drift,"110 Bishopsgate, London",EC2N 4AY,533255,181448,51.516247,-0.080935,City of London
95979,The Duke and Duchess,"2-3 Creed Lane, London",EC4V 5BR,531857,181098,51.513429,-0.101202,City of London
95981,The English Wine and Spirit Co Ltd,"Retail Unit, 8 Devonshire Row, London",EC2M 4RH,533308,181527,51.516935,-0.080142,City of London
95982,The Fable,"60 Holborn Viaduct, London",EC1A 2FD,531676,181490,51.516994,-0.103662,City of London
95985,The Fine Line,"1 Bow Churchyard, London",EC4M 9DQ,532352,181118,51.513493,-0.094065,City of London
95987,The Fleetwood,"The Fleetwood Public House, 36 Wilson Street, London",EC2M 2TE,532947,181794,51.519428,-0.085241,City of London
95988,The Folly,"41 Gracechurch Street, London",EC3V 0BT,532917,180882,51.51124,-0.086017,City of London
95989,The Four Sisters Townhouse,"5 Groveland Court, London",EC4M 9EH,532349,181094,51.513278,-0.094117,City of London
95990,The Gable,"25 Moorgate, London",EC2R 6AR,532665,181394,51.5159,-0.089453,City of London
95994,The Globe,"The Globe Public House, 83 Moorgate, London",EC2M 6SA,532705,181604,51.517778,-0.088798,City of London
95995,The Golden Fleece,"Golden Fleece Public House, 8-9 Queen Street, London",EC4N 1SP,532446,181096,51.513274,-0.09272,City of London
96000,The Green Man,"The Green Man Public House, 1 Poultry, London",EC2R 8EJ,532574,181098,51.513262,-0.090875,City of London
96001,The Grill on the Market,"2-3 West Smithfield, London",EC1A 9JX,531774,181647,51.518382,-0.102192,City of London
96003,The Habit,"Friary Court, 65 Crutched Friars, London",EC3N 2AE,533418,180904,51.51132,-0.078793,City of London
96004,The Hack & Hop,"35 Whitefriars Street, London",EC4Y 8BH,531445,181154,51.514028,-0.107115,City of London
96006,The Harrow,"The Harrow Public House, 22 Whitefriars Street, London",EC4Y 8JJ,531471,181030,51.512908,-0.106787,City of London
96008,The Hoop & Grapes,"47 Aldgate High Street, London",EC3N 1AL,533712,181221,51.514099,-0.074439,City of London
96009,The Hoop & Grapes,"80 Farringdon Street, London",EC4A 4BL,531585,181304,51.515344,-0.105043,City of London
96010,The Hung Drawn & Quartered,"The Hung Drawn And Quartered Public House, 27 Great Tower Street, London",EC3R 5AQ,533260,180713,51.509641,-0.081141,City of London
96011,"The Hydrant, Equitable House","1 Monument Street, London",EC3R 8BG,532895,180787,51.510391,-0.086369,City of London
96017,The Jugged Hare,"49 Chiswell Street, London",EC1Y 4SA,532548,181935,51.520789,-0.090935,City of London
96018,The Kings Arms,"The Kings Arms Public House, 27 Wormwood Street, London",EC2M 1RP,533141,181463,51.516408,-0.082572,City of London
96021,The Lamb Tavern,"Lamb Tavern Public House, 10-12 Leadenhall Market, London",EC3V 1LR,533094,181048,51.51269,-0.083405,City of London
96023,The Lord Aberconway,"Lord Aberconway Public House, 73 Old Broad Street, London",EC2M 1QT,533108,181558,51.51727,-0.083011,City of London
96024,The Lord Raglan,"61 St Martin's-Le-Grand, London",EC1A 4ER,532169,181455,51.516564,-0.096575,City of London
96026,The Magpie,"The Magpie Public House, 12 New Street, London",EC2M 4TP,533364,181563,51.517245,-0.079322,City of London
96028,The Merchant,"Lower Concourse Public House, Liverpool Street Station, Liverpool Street, London",EC2M 7PY,533215,181761,51.519069,-0.081393,City of London
96029,The Minories Public House,"Minories Public House, 64-73 Minories, London",EC3N 1JL,533716,180836,51.510638,-0.074527,City of London
96030,The Monument Public House,"18 Fish Street Hill, London",EC3R 6DB,532873,180748,51.510037,-0.086701,City of London
96032,The New Moon Public House,"New Moon Public House, 88 Gracechurch Street, London",EC3V 0DN,533039,181065,51.512847,-0.084191,City of London
96034,The Old Bell Tavern,"The Old Bell Public House, 95 Fleet Street, London",EC4Y 1DH,531562,181155,51.51401,-0.105429,City of London
96035,The Old Doctor Butler's Head,"The Old Doctor Butlers Head Public House, 2 Mason's Avenue, London",EC2V 5BT,532598,181385,51.515826,-0.090422,City of London
96036,The Old Tea Warehouse,"The Old Tea Warehouse Public House, 4-8 Creechurch Lane, London",EC3A 5AY,533405,181159,51.513614,-0.078884,City of London
96037,The Olde Wine Shades,"The Olde Wine Shades Public House, 6 Martin Lane, London",EC4R 0DJ,532811,180838,51.510869,-0.087559,City of London
96040,The Paternoster,"2 Queen's Head Passage, London",EC4M 7DZ,532067,181263,51.514863,-0.098116,City of London
96041,The Peacock,"The Peacock Public House, 41 Minories, London",EC3N 1DT,533663,180981,51.511945,-0.075236,City of London
96042,"The Pelt Trader, Arch 3","23 Dowgate Hill, London",EC4R 2SU,532549,180846,51.511003,-0.09133,City of London
96043,The Pepys,"Samuel Pepys Public House, Stew Lane, London",EC4V 3PT,532208,180772,51.510418,-0.096269,City of London
96044,The Phoenix,"26 Throgmorton Street, London",EC2N 2AN,532898,181310,51.515091,-0.086129,City of London
96045,The Rack & Tenter,"The Rack And Tenter Public House, Tenter House, 45 Moorfields, London",EC2Y 9AE,532696,181715,51.518778,-0.088886,City of London
96046,The Railway Tavern,"The Railway Tavern Public House, 15 Liverpool Street, London",EC2M 7NX,533075,181584,51.517511,-0.083477,City of London
96048,The Red Lion,"The Red Lion Public House, 1 Eldon Street, London",EC2M 7LS,532927,181721,51.518777,-0.085557,City of London
96050,The Rising Sun,"Rising Sun Public House, 61 Carter Lane, London",EC4V 5DY,531842,181060,51.513091,-0.101432,City of London
96051,The Rising Sun Public House,"38 Cloth Fair, London",EC1A 7JQ,531939,181735,51.519134,-0.099783,City of London
96052,The Saint,"Retail Unit, 1 Rose Street, London",EC4M 7DQ,531911,181320,51.515412,-0.100341,City of London
96055,The Sea Horse PH,"Sea Horse Public House, 64 Queen Victoria Street, London",EC4N 4SJ,532385,181020,51.512596,-0.093627,City of London
96056,The Shakespeare,"The Shakespeare Public House, 2 Goswell Road, London",EC1M 7AA,532096,182114,51.522495,-0.09738,City of London
96057,The Ship,"The Ship Public House, 3 Hart Street, London",EC3R 7NB,533338,180853,51.51088,-0.079964,City of London
96058,The Ship Public House,"11 Talbot Court, London",EC3V 0BP,532990,180856,51.510989,-0.084975,City of London
96059,The St Barts Brewery,"66 West Smithfield, London",EC1A 9DY,531886,181705,51.518877,-0.100557,City of London
96060,The Sterling,"30 St Mary Axe, London",EC3A 8BF,533300,181253,51.514484,-0.080361,City of London
96061,The Still & Star,"Still And Star Public House, 1 Little Somerset Street, London",E1 8AH,533759,181181,51.513728,-0.073777,City of London
96062,The Sugarloaf,"Retail Unit, 65 Cannon Street, London",EC4N 5AA,532429,180994,51.512361,-0.093003,City of London
96063,The Swan PH,"Retail Unit, 77-80 Gracechurch Street, London",EC3V 0AS,533025,181010,51.512356,-0.084413,City of London
96067,The Telegraph,"The Telegraph Public House, 11 Telegraph Street, London",EC2R 7AR,532744,181369,51.515657,-0.088325,City of London
96068,The Three Cranes,"28 Garlick Hill, London",EC4V 2BA,532380,180954,51.512013,-0.093723,City of London
96069,The Three Lords,"Three Lords Public House, 27 Minories, London",EC3N 1DE,533655,181046,51.51254,-0.075326,City of London
96073,The Walrus & The Carpenter PH,"The Walrus & The Carpenter Public House, 45 Monument Street, London",EC3R 8BU,533054,180693,51.509509,-0.084115,City of London
96075,The White Horse,"2 Exchange Place, London",EC2A 2EH,533296,181828,51.519652,-0.080201,City of London
96076,The White Swan,"108 Fetter Lane, London",EC4A 1ES,531277,181392,51.516206,-0.109446,City of London
96079,The Woodins Shades,"Woodins Shades Public House, 212 Bishopsgate, London",EC2M 4PT,533362,181679,51.518297,-0.079307,City of London
96084,Three Tuns,"The Three Tuns Public House, 36 Jewry Street, London",EC3N 2ET,533567,181130,51.513306,-0.076562,City of London
96090,Tipperary,"The Tipperary Public House, 66 Fleet Street, London",EC4Y 1HT,531412,181153,51.514027,-0.107591,City of London
96095,Tokenhouse,"Retail Unit, 4 Moorgate, London",EC2R 6DA,532682,181317,51.515195,-0.089238,City of London
96129,Vertigo 42,"Tower 42, International Financial Centre, 25 Old Broad Street, London",EC2N 1HQ,533038,181337,51.5153,-0.084103,City of London
96130,Viaduct Tavern Public House,"126 Newgate Street, London",EC1A 7AA,531820,181408,51.516224,-0.101619,City of London
96132,Vino & Vino,"16 West Smithfield, London",EC1A 9HY,531804,181583,51.5178,-0.101784,City of London
96149,"Voltaire, Crowne Plaza Hotel","Blackfriars House, 19 New Bridge Street, London",EC4V 6DB,531620,180962,51.512262,-0.104666,City of London
96174,We Are Bar,"155 Bishopsgate, London",EC2M 3TQ,533282,181713,51.518622,-0.080446,City of London
96186,White Horse,"31 Houndsditch, London",EC3A 7DB,533426,181317,51.515029,-0.078522,City of London
96193,Williams Ale and Cider House,"22-24 Artillery Lane, London",E1 7LS,533430,181687,51.518353,-0.078324,City of London
96194,Williamsons Tavern,"Williamson's Tavern Public House, 1 Groveland Court, London",EC4M 9EH,532349,181094,51.513278,-0.094117,City of London
96195,Willys Wine Bar,"Basement Retail Unit, 107 Fenchurch Street, London",EC3M 5JF,533381,181045,51.512586,-0.079273,City of London
96196,Wine Lodge Public House,"145 Fenchurch Street, London",EC3M 6BL,533156,180950,51.511786,-0.082549,City of London
96212,Wood Street Bar and Restaurant,"53 Fore Street, London",EC2Y 5EJ,532590,181598,51.517751,-0.090457,City of London
96230,Ye Olde Cheshire Cheese,"Ye Olde Cheshire Cheese Public House, 145 Fleet Street, London",EC4A 2BU,531425,181194,51.514392,-0.107388,City of London
96231,Ye Olde Cock Tavern,"Ye Olde Cock Tavern Public House, 22 Fleet Street, London",EC4Y 1AA,531211,181110,51.513687,-0.110501,City of London
96232,Ye Olde London,"Ye Olde London Public House, 42 Ludgate Hill, London",EC4M 7DE,531824,181170,51.514084,-0.10165,City of London
96233,Ye Olde Watling,"Ye Olde Watling Public House, 29 Watling Street, London",EC4M 9BR,532356,181061,51.51298,-0.094029,City of London
96244,Zorita's Kitchen,"Retail Unit, Broken Wharf House, 2 Broken Wharf, London",EC4V 3DT,532169,180797,51.510651,-0.096821,City of London
96725,Cocktail Embassy,76 Westow Hill Upper Norwood London SE19 1SB,SE19 1SB,533651,170706,51.419621,-0.079304,Croydon
96737,Conquering Hero,The Conquering Hero 262 Beulah Hill Upper Norwood London SE19 3HF,SE19 3HF,531784,170808,51.420974,-0.106086,Croydon
96822,Crystals Night Club Crystal Palace Football Club,Crystal Palace Football Club Whitehorse Lane South Norwood London SE25 6PU,SE25 6PU,533252,168279,51.397904,-0.085935,Croydon
97976,Portmanor Public House,Portmanor Public House Portland Road South Norwood London SE25 4UF,SE25 4UF,534192,168349,51.398312,-0.072405,Croydon
98097,Royal Albert,The Royal Albert Public House 42 Westow Hill Upper Norwood London SE19 1RX,SE19 1RX,533505,170707,51.419655,-0.081388,Croydon
98332,St Chads Lunch Club,Church Hall Burgoyne Road South Norwood London SE25 6JT,SE25 6JT,533608,168288,51.397901,-0.080818,Croydon
98491,The Albert Tavern,Pickled Newt Public House Harrington Road South Norwood London SE25 4LX,SE25 4LX,534574,168238,51.397215,-0.06696,Croydon
98493,The Alliance,The Alliance 91 High Street South Norwood London SE25 6EA,SE25 6EA,533947,168364,51.398495,-0.075933,Croydon
98501,The Beehive,The Beehive 47 Woodside Green South Norwood London SE25 5HQ,SE25 5HQ,534353,167114,51.387176,-0.070559,Croydon
98526,The Cherry Tree,The Cherry Tree 32 Station Road South Norwood London SE25 5AG,SE25 5AG,533974,168239,51.397366,-0.075579,Croydon
98531,The Clifton Arms,The Clifton Arms 21 Clifton Road South Norwood London SE25 6NJ,SE25 6NJ,533251,168092,51.396224,-0.08602,Croydon
98577,The Gold Coast Bar And Restaurant,The Gold Coast 224 Portland Road South Norwood London SE25 4QB,SE25 4QB,534601,167706,51.392427,-0.066773,Croydon
98595,The Joiners Arms,50-52 Woodside Green South Norwood London SE25 5EU,SE25 5EU,534356,167077,51.386851,-0.07053,Croydon
98597,The Jolly Sailor,The Jolly Sailor 64 High Street South Norwood London SE25 6EB,SE25 6EB,533997,168422,51.399014,-0.075179,Croydon
98637,The Postal Order,33 Westow Street Upper Norwood London SE19 3RW,SE19 3RW,533476,170507,51.417865,-0.08188,Croydon
98647,The Salvation Army,The Salvation Army Westow Street Upper Norwood London SE19 3AF,SE19 3AF,533460,170480,51.417626,-0.08212,Croydon
98659,The Sparrowhawk,The Sparrowhawk 2 Westow Hill Upper Norwood London SE19 1RX,SE19 1RX,533505,170707,51.419655,-0.081388,Croydon
98686,The White Hart,96 Church Road Upper Norwood London SE19 2EZ,SE19 2EZ,533542,170497,51.417768,-0.080935,Croydon
98752,Trude Rotisserie,The Alliance 91 High Street South Norwood London SE25 6EA,SE25 6EA,533947,168364,51.398495,-0.075933,Croydon
98792,Victory Club,227 Selhurst Road South Norwood London SE25 6XY,SE25 6XY,533639,168229,51.397364,-0.080395,Croydon
98867,William Stanley,The William Stanley 7-8 High Street South Norwood London SE25 6EP,SE25 6EP,533907,168375,51.398613,-0.07649,Croydon
98891,Woodside Social Club,Social Club 12 Enmore Road South Norwood London SE25 5NQ,SE25 5NQ,534425,167789,51.393215,-0.069269,Croydon
99565,Duke Of Kent,"The Duke Of Kent, Scotch Common, West Ealing, London",W13 8DL,516630,181982,51.524719,-0.320251,Ealing
100309,Mendes Sheepwalk,"Sheepwalk Tavern, Market Place, Acton, London",W3 6QS,520068,180170,51.507723,-0.271321,Ealing
101177,The Duke of York,"The Duke Of York, 161 Uxbridge Road, Hanwell, London",W7 3SP,515428,180219,51.50912,-0.338132,Ealing
101209,The Haven Arms,"Haven Arms, 33 Haven Lane, Ealing, London",W5 2HZ,518054,181157,51.517009,-0.299997,Ealing
101273,The Viaduct,"The Viaduct Inn, 221 Uxbridge Road, Hanwell, London",W7 3TD,515153,180155,51.508601,-0.342114,Ealing
101422,West London Golf Centre,"London Golf Centre, Ruislip Road, Northolt",UB5 6RD,511046,184228,51.546031,-0.399985,Hillingdon
101549,Alan Pullinger Youth Cntr,"Alan Pullinger Centre, 1 John Bradshaw Road, LONDON",N14 6BT,529737,194107,51.630834,-0.126935,Enfield
101567,Anadolu Social Club,"32 Sterling Way, LONDON",N18 2XZ,533995,192398,51.614471,-0.066106,Enfield
101637,Barosi,"151 Green Lanes, LONDON",N13 4SP,530975,191991,51.611515,-0.109851,Enfield
101638,Barrowfield CI & Jeremys Green Ass.,"Westbourne Hall, Westbourne Place, LONDON",N9 0RT,534948,193461,51.623796,-0.051942,Enfield
101641,Bassbox,"H7, 35 Harbet Road, LONDON",N18 3HT,536052,191811,51.608695,-0.036644,Enfield
101666,BHPGC,"Bush Hill Park Golf Club, Bush Hill, LONDON",N21 2BU,532219,195639,51.644024,-0.090519,Enfield
101706,Boundary Hall,"138 Snells Park, LONDON",N18 2SZ,533963,191896,51.609968,-0.066774,Enfield
101707,Bounds Green Bowls And Tennis Club,"Brownlow Road, LONDON",N11 2BS,530108,191807,51.610071,-0.122432,Enfield
101712,Bowls Club Lea Valley Leisure Centre,"59 Meridian Way, LONDON",N9 0AR,535893,194460,51.632546,-0.037911,Enfield
101713,Brackendale Lawn Tennis Club,"Brackendale Sports Ground, Brackendale, LONDON",N21 3DH,530911,193900,51.628703,-0.110061,Enfield
101741,Broomfield Club,"85 Hedge Lane, LONDON",N13 5SZ,531744,193192,51.622137,-0.0983,Enfield
101857,Chaseville Cricket Club,"Cricket Pavilion, Bramley Sports Ground, Chase Side, LONDON",N14 4AB,528593,195356,51.642312,-0.142997,Enfield
101919,Conway Lawn Tennis Club,"Conway Road Recreation Ground, Conway Road, LONDON",N14 7BD,530291,193180,51.622367,-0.119281,Enfield
101954,Crown And Anchor,"Public House, 222 Fore Street, LONDON",N18 2QD,534161,192620,51.616427,-0.063625,Enfield
101956,Croyland Youth Centre,"Croyland Road, LONDON",N9 7BE,534192,194185,51.630482,-0.062578,Enfield
101958,Cuckoo Hall Estate Community Assoc,"Mottingham Hall, 4 Mottingham Road, LONDON",N9 8DY,535550,194957,51.637104,-0.042672,Enfield
102007,Dog And Duck,"Public House, 74 Hoppers Road, LONDON",N21 3LH,531324,193656,51.626414,-0.104189,Enfield
102039,Edmonton Conservative Club,"396 Hertford Road, LONDON",N9 7EY,534895,194707,51.635005,-0.052227,Enfield
102042,Edmonton Cricket Club,"Norsemen Football Club Edmonton Cricket Club, Church Street, LONDON",N9 9HL,533249,194012,51.629152,-0.076261,Enfield
102049,Edmonton Sports & Social Club,"Norsemen Football Club Edmonton Cricket Club, Church Street, LONDON",N9 9HL,533249,194012,51.629152,-0.076261,Enfield
102074,Enfield & Haringey Club Restaurant,"Lea Valley Athletics Centre, 61 Meridian Way, LONDON",N9 0AR,535893,194460,51.632546,-0.037911,Enfield
102156,Fishmongers Arms,"Commercial Premises, Public House, Winchmore Hill Road, LONDON",N14 6AD,529881,194437,51.633758,-0.124735,Enfield
102181,Friends Social Club,"2A-2B Gloucester Road, LONDON",N18 1HL,533724,192246,51.61317,-0.070076,Enfield
102225,Golden Palace,"C38, 35 Harbet Road, LONDON",N18 3HU,535995,191745,51.608115,-0.037492,Enfield
102245,Green Towers Community Centre,"Green Towers Hall, Plevna Road, LONDON",N9 0BU,534521,193412,51.623458,-0.058125,Enfield
102286,Harvester,"Public House, 338 Bowes Road, LONDON",N11 1AN,529270,192472,51.61624,-0.134282,Enfield
102288,Harvester Gryphon,"Public House, 9 Vera Avenue, LONDON",N21 1RE,531693,195473,51.642647,-0.098179,Enfield
102298,Hazelwood Tennis Club,"Ridge Avenue, LONDON",N21 2AJ,532391,194790,51.636354,-0.088355,Enfield
102323,Hiiraan Social Club,"121 Green Lanes, LONDON",N13 4SP,530975,191991,51.611515,-0.109851,Enfield
102377,Iskele Spor Kulubu,"37 Bounces Road, LONDON",N9 8JD,534817,193995,51.628626,-0.053628,Enfield
102396,Jays Rest,"Fire Station, 99 Church Street, LONDON",N9 9AA,533739,193819,51.627302,-0.069274,Enfield
102482,La Face,"169-171 Fore Street, LONDON",N18 2XB,534081,192332,51.613858,-0.06489,Enfield
102513,Lefke Social Club,"281 Hertford Road, LONDON",N9 7ES,534774,194532,51.633462,-0.054042,Enfield
102556,LT's,"Public House, 58 Fore Street, LONDON",N18 2SW,534060,191962,51.610538,-0.065335,Enfield
102600,Mayfield Athletic Club,"Kenmare Gardens, LONDON",N13 5DR,532063,192669,51.617363,-0.093891,Enfield
102624,Memorial Hall,"Maldon Road, LONDON",N9 9QP,533944,193352,51.623056,-0.066478,Enfield
102655,Mollys Bar,"Public House, 380 Bowes Road, LONDON",N11 1AH,529175,192493,51.616451,-0.135646,Enfield
102696,N. Salamis FC,"374 Green Lanes, LONDON",N13 5PD,531238,193082,51.621267,-0.105646,Enfield
102707,NEASO and Southgate Olympic Assoc,"Clowes Sports Ground, Barrowell Green, LONDON",N21 3AU,532019,193624,51.625964,-0.094167,Enfield
102712,New Calypsonians Cricket Club,"Middlesex University Sports Ground, Green Dragon Lane, LONDON",N21 1EP,531013,195553,51.643515,-0.107971,Enfield
102719,New Southgate Conservative Club,"High Road, New Southgate, LONDON",N11 1PP,528883,192205,51.613929,-0.139967,Enfield
102738,Norsemen Football Club,"Norsemen Football Club Edmonton Cricket Club, Church Street, LONDON",N9 9HL,533249,194012,51.629152,-0.076261,Enfield
102761,Oakwood Tavern,"155 Bramley Road, LONDON",N14 4XA,529530,196108,51.648846,-0.129185,Enfield
102769,Old Grammarians RFC,"Middlesex University Sports Ground, Green Dragon Lane, LONDON",N21 1EP,531013,195553,51.643515,-0.107971,Enfield
102776,On Broadway,"765 Green Lanes, LONDON",N21 3SA,531879,194266,51.631757,-0.095947,Enfield
102913,Pymmes Park Bowling Club,"Pymmes Park, Victoria Road, LONDON",N18 2UG,533946,192695,51.617152,-0.0667,Enfield
103002,Salisbury Arms,"Sailsbury Arms, Public House, Hoppers Road, LONDON",N21 3NP,531393,194386,51.632949,-0.10292,Enfield
103009,Sapphire Kitchen,"C42, 35 Harbet Road, LONDON",N18 3HU,535995,191745,51.608115,-0.037492,Enfield
103022,Selborne Bowling Club,"The Mall, LONDON",N14 6EN,529957,193495,51.625275,-0.123986,Enfield
103075,Social Club,"254 Fore Street, LONDON",N18 2QD,534161,192620,51.616427,-0.063625,Enfield
103094,Southgate Masonic Centre,"88 High Street, LONDON",N14 6EB,529827,193728,51.627399,-0.125777,Enfield
103097,Southgate Royal British Legion,"Hollies Hall, Nursery Road, LONDON",N14 5QD,529264,194708,51.636335,-0.133545,Enfield
103106,Sports Lounge Snooker Club,"Red Ridge Club, Bridge Gate Mews, LONDON",N21 2AH,532277,194748,51.636004,-0.090032,Enfield
103147,St Monica's Parish Centre,"St Monicas Social Club, Cannon Hill, LONDON",N14 7HG,530153,193111,51.621779,-0.121299,Enfield
103252,The Alfred Herring,"316-322 Green Lanes, LONDON",N13 5TT,531137,192821,51.618954,-0.107201,Enfield
103254,The Beehive PH,"24 Little Bury Street, LONDON",N9 9JZ,532991,194443,51.633086,-0.079823,Enfield
103255,The Bird in Hand,"Public House, 100 Tottenhall Road, LONDON",N13 6DG,531548,191956,51.611076,-0.101593,Enfield
103264,The Bull,"Public House, 161 Silver Street, LONDON",N18 1PY,533240,192593,51.616403,-0.076944,Enfield
103268,The Cart,"Public House, 434 Montagu Road, LONDON",N9 0ER,535402,193904,51.627668,-0.045216,Enfield
103284,The Fox PH,"Public House, 413 Green Lanes, LONDON",N13 4JD,531164,192973,51.620313,-0.106755,Enfield
103288,The Gilpins Bell,"50-56 Fore Street, LONDON",N18 2SS,534019,191876,51.609766,-0.06596,Enfield
103302,The Hyde Arms,"Public House, 137 Victoria Road, LONDON",N9 9BB,533979,193293,51.622518,-0.065995,Enfield
103308,The Kings Head,"Public House, The Green, Winchmore Hill, LONDON",N21 1BB,531348,194580,51.634712,-0.103496,Enfield
103310,The Lamb P.H,"52 Church Street, LONDON",N9 9PA,534135,193614,51.625374,-0.06362,Enfield
103320,The Minchenden Association,"Cricket Pavilion, Bramley Sports Ground, Chase Side, LONDON",N14 4AB,528593,195356,51.642312,-0.142997,Enfield
103321,The New Crown,"Public House, 80-84 Chase Side, LONDON",N14 5PH,529451,194401,51.633542,-0.130957,Enfield
103322,The Occasional Half,"Public House, 67-77 Green Lanes, LONDON",N13 4TD,530960,191840,51.61017,-0.110123,Enfield
103326,The Orange Tree,"18 Highfield Road, LONDON",N21 3HA,531889,193963,51.629032,-0.095931,Enfield
103336,The Queens Head,"Public House, 41-43 Station Road, Winchmore Hill, LONDON",N21 3NB,531556,194445,51.633441,-0.100544,Enfield
103339,The Railway Tavern,"Public House, 19-20 Market Square, LONDON",N9 0TZ,534515,193501,51.624259,-0.058178,Enfield
103345,The Rising Sun,"Public House, 240 Winchester Road, LONDON",N9 9EF,534015,194250,51.631109,-0.06511,Enfield
103350,The Southgate Club,"17 Chase Side, LONDON",N14 5BP,529546,194306,51.632658,-0.129621,Enfield
103353,The Stag And Hounds,"Public House, 371 Bury Street West, LONDON",N9 9JW,533219,194636,51.634766,-0.076457,Enfield
103359,The Three Wishes,"Public House, 749 Green Lanes, LONDON",N21 3SA,531879,194266,51.631757,-0.095947,Enfield
103363,The Walker Cricket Ground,"175 Waterfall Road, LONDON",N14 7JZ,529508,193546,51.625837,-0.13045,Enfield
103366,The White Hart,"290 Chase Road, LONDON",N14 6HA,529740,194473,51.634122,-0.126757,Enfield
103367,The White Horse,"Public House, 105 Fore Street, LONDON",N18 2XF,534053,192178,51.61248,-0.065353,Enfield
103369,The Winchmore,"Public House, 235 Winchmore Hill Road, LONDON",N21 1QA,530743,194959,51.638249,-0.112092,Enfield
103371,The Woodman,"Public House, 128 Bourne Hill, LONDON",N13 4BD,530435,193888,51.628696,-0.116939,Enfield
103400,Trent Park Golf Club,"Bramley Road, LONDON",N14 4UW,529393,196150,51.649264,-0.131149,Enfield
103419,Unikat - 2 B6 Restaurant,"248A Green Lanes, LONDON",N13 5TU,531060,192707,51.617938,-0.108356,Enfield
103425,Vicars Moor Lawn Tennis Club,"Sherbrook Gardens, LONDON",N21 2NU,532036,194753,51.636096,-0.093496,Enfield
103485,Winchmore Hill Bowling Club,"Radcliffe Road, LONDON",N21 2SD,531825,194471,51.633612,-0.096649,Enfield
103487,Winchmore Hill Sports Club (CC),"Paulin Ground, Fords Grove, LONDON",N21 3ER,532283,194413,51.632992,-0.090057,Enfield
103493,Wishing Well,"Public House, 9 Aldermans Hill, LONDON",N13 4YD,530949,192690,51.617811,-0.109965,Enfield
103509,Ye Olde Cherry Tree,"Public House, 22 The Green, New Southgate, LONDON",N14 6EN,529957,193495,51.625275,-0.123986,Enfield
103522,02 Ny-Lon Bar,"02 Peninsular Square, London",SE10 0DX,539298,179978,51.501581,0.005519,Greenwich
103539,Abbey Arms,"31 Wilton Road, London",SE2 9RH,547385,178955,51.49034,0.121521,Greenwich
103551,Admiral Hardy,"7 College Approach, London",SE10 9HY,538313,177782,51.482089,-0.009522,Greenwich
103594,Anchor & Hope,"2 Riverside, London",SE7 7SS,540935,179138,51.493619,0.028753,Greenwich
103600,Angerstein Hotel,"108 Woolwich Road, London",SE10 0LE,540074,178283,51.486158,0.01602,Greenwich
103601,Anglesea Arms,"91 Woolwich New Road, London",SE18 6EF,543600,178637,51.488456,0.066912,Greenwich
103618,Ashburnham Arms,"25 Ashburnham Grove, London",SE10 8UH,537860,177073,51.475829,-0.016318,Greenwich
103638,Badgers Sports and Social Club,"Middle Park Avenue, London",SE9 5HP,541557,174478,51.451598,0.035842,Greenwich
103644,Banker's Draft,"80 Eltham High Street, London",SE9 1BW,542767,174381,51.450423,0.053205,Greenwich
103672,Belushi's,"189 Greenwich High Road, London",SE10 8JA,537972,177276,51.477626,-0.014627,Greenwich
103675,Bermondsey Pub Company,"6 Red Lion Place, London",SE18 3RN,543185,176646,51.47067,0.060132,Greenwich
103690,Bill's Restaurant Limited,"13-14 Nelson Road, London",SE10 9JB,538363,177673,51.481097,-0.008845,Greenwich
103699,Blackheath & Newbridge,"Working Men's Club, 22 Charlton Road, London",SE3 7HG,540453,177365,51.477815,0.02111,Greenwich
103704,Blackheath Football Club Ltd,"t/a Blackheath Rugby Club, Rectory Field, Charlton Road, London",SE7 7EZ,540830,177581,51.479672,0.026622,Greenwich
103739,Breadline Catering Ltd,"@ Metrogas  ASA Ltd, 40 Footway, Avery Hill Road, London",SE9 2BQ,544426,173097,51.438457,0.076525,Greenwich
103745,British Oak,"109 Old Dover Road, London",SE3 8SU,540804,177198,51.476228,0.026095,Greenwich
103756,Bull Tavern,"14 Vincent Road, London",SE18 6RF,543780,178755,51.489471,0.069536,Greenwich
103807,Castle Tavern,"179 Powis Street, London",SE18 6JL,543220,179098,51.492703,0.06163,Greenwich
103826,Charlton Liberal Club,"59 Charlton Church Lane, London",SE7 7AE,541194,178326,51.486266,0.032157,Greenwich
103832,Charlton Park Rugby Club,"60a Broad Walk, London",SE3 8NB,541426,176067,51.46591,0.034593,Greenwich
103877,Coldharbour Leisure Centre,"Chapel Farm Road, London",SE9 3LX,542834,172897,51.437071,0.05357,Greenwich
103930,Crofton Albion Sports & Social Club,"Weigall Road, London",SE12 8HF,540339,175100,51.457491,0.018571,Greenwich
103936,Cutty Sark,"14 Joyce Dawson Way, London",SE28 8RA,546326,180788,51.507076,0.107037,Greenwich
103938,Cutty Sark Tavern,"4 - 6 Ballast Quay, London",SE10 9PD,538949,178291,51.486498,-0.000169,Greenwich
103990,Earl Of Chatham,"15 Thomas Street, London",SE18 6HU,543540,178860,51.490484,0.066139,Greenwich
104004,Elephant and Castle,"18 Green's End, London",SE18 6JY,543688,178867,51.4905,0.068272,Greenwich
104012,Eltham Conservative & Unionist Club,"254 Eltham High Street, London",SE9 1AA,543398,174392,51.450363,0.062284,Greenwich
104017,Eltham GPO,"4 Passey Place, London",SE9 5DQ,542803,174331,51.449956,0.053702,Greenwich
104021,Eltham Hill Club & Instit,"Eltham Hill Club & Institute, 85 Eltham Hill, London",SE9 5SU,542245,174514,51.45175,0.045751,Greenwich
104061,Farmhouse Public House,"52 Jason Walk, London",SE9 3DH,543150,171862,51.427691,0.057695,Greenwich
104100,Footscray Rugby Sports Athletics Clu,"239A-241 Footscray Road, London",SE9 2EL,543676,173476,51.442061,0.06591,Greenwich
104105,Fox & Hounds,"57 Plumstead Common Road, London",SE18 3AS,543815,177960,51.482318,0.069731,Greenwich
104133,George IV,"120 Rectory Place, London",SE18 5BY,543154,178848,51.490474,0.060578,Greenwich
104139,Glenmore Arms,"41 Edison Grove, London",SE18 2DW,545582,177107,51.474202,0.094808,Greenwich
104144,Goddard's at Greenwich,"22 King William Walk, London",SE10 9HU,538360,177755,51.481844,-0.008856,Greenwich
104168,Green Pea,"c/o Hardys Freehouse, 92 Trafalgar Road, London",SE10 9UW,539075,178018,51.484032,0.001537,Greenwich
104199,Greenwich Rugby & Football Club,"The Pavillion Old Mill Road, London",SE18 1QJ,544769,177961,51.482092,0.08346,Greenwich
104203,Greenwich Tavern,"1 King William Walk, London",SE10 9JH,538440,177598,51.480405,-0.007767,Greenwich
104205,Greenwich Theatre,"Crooms Hill, London",SE10 8ES,538448,177495,51.479477,-0.007692,Greenwich
104207,Greenwich Union,"56 Royal Hill, London",SE10 8RT,538307,177165,51.476547,-0.009864,Greenwich
104248,Hardys Free house,"92 Trafalgar Road, London",SE10 9UW,539075,178018,51.484032,0.001537,Greenwich
104295,Hungry Horse (Fox Under the Hill),"286 Shooters Hill Road, London",SE18 4LT,541851,176933,51.473585,0.041054,Greenwich
104317,IT Foods Limited,"Eltham Warren Golf Club, Bexley Road, London",SE9 2PE,543758,174589,51.452042,0.067526,Greenwich
104447,Lord Herbert,"47 Herbert Road, London",SE18 3SZ,543804,177691,51.479913,0.069463,Greenwich
104448,Lord Raglan,"158 Burrage Road, London",SE18 7LA,544044,178340,51.485683,0.073182,Greenwich
104508,Meantime Brewery Company LTD,"Unit 1 , Lawrence Trading Estate, Blackwall Lane, London",SE10 0AR,539513,178635,51.48945,0.008084,Greenwich
104516,Melbourne Arms,"81 Sandy Hill Road, London",SE18 7BB,543819,178143,51.483961,0.069863,Greenwich
104525,Meridian Sports & Social Club,"0 Charlton Park Lane, London",SE7 8QS,542044,177506,51.478685,0.044061,Greenwich
104552,Mitre,"291 Greenwich High Road, London",SE10 8NA,538298,177573,51.480215,-0.00982,Greenwich
104627,New Eltham Social Club,"32 Avery Hill Road, London",SE9 2BD,544230,173069,51.438255,0.073695,Greenwich
104654,North Pole Bar & Restaurant,"131 Greenwich High Road, London",SE10 8JA,537972,177276,51.477626,-0.014627,Greenwich
104664,O'Dowds,"67 Plumstead High Street, London",SE18 1SB,545202,178684,51.488469,0.089989,Greenwich
104667,Old Brewery,"Pepys House, 2 Cutty Sark Gardens, London",SE10 9LW,538344,177859,51.482782,-0.009045,Greenwich
104668,Old Brockleyans,"Old Brockleians Sports Ground, Eltham Palace Road, London",SE9 5LX,541632,174219,51.449252,0.036817,Greenwich
104670,Olivers,"9 Nevada Street, London",SE10 9JL,538452,177517,51.479683,-0.007625,Greenwich
104692,Park Tavern,"45 Passey Place, London",SE9 5DA,542854,174349,51.450105,0.054442,Greenwich
104700,Pelton Arms,"23-25 Pelton Road, London",SE10 9PQ,539154,178298,51.486511,0.002784,Greenwich
104738,Plume of Feathers,"19 Park Vista, London",SE10 9LZ,538935,177800,51.482099,-0.000564,Greenwich
104739,Plume Of Feathers,"282 Plumstead High Street, London",SE18 1JT,545970,178371,51.485459,0.100913,Greenwich
